{
"type": "FeatureCollection",
"name": "@Liste_articles_TES_1974-2024_v3",
"crs": { "type": "name", "properties": { "name": "urn:ogc:def:crs:OGC:1.3:CRS84" } },
"features": [
{ "type": "Feature", "properties": { "N° revue TES": "1", "Titre": "Réalisation du lot 10 du R.E.R.", "Page": 22, "Pays": "France", "Commune": "Paris", "Code postal": 75000, "Latitude": 2.347, "Longitude": 48.859, "Mode transport": "ferroviaire" }, "geometry": { "type": "Point", "coordinates": [ 48.859, 2.347 ] } },
{ "type": "Feature", "properties": { "N° revue TES": "2", "Titre": "Les travaux en souterrain dans l'aménagement hydroélectrique de Brommat Il", "Page": 66, "Pays": "France", "Commune": "Brommat", "Code postal": 12600, "Latitude": 2.703574, "Longitude": 44.814077, "Mode transport": "énergie\/réseau" }, "geometry": { "type": "Point", "coordinates": [ 44.814077, 2.703574 ] } },
{ "type": "Feature", "properties": { "N° revue TES": "2", "Titre": "La construction du Tunnel de Langesse sur l'autoroute A8", "Page": 81, "Pays": "France", "Commune": "Meyreuil", "Code postal": 13590, "Latitude": 5.504206, "Longitude": 43.487174, "Mode transport": "routier" }, "geometry": { "type": "Point", "coordinates": [ 43.487174, 5.504206 ] } },
{ "type": "Feature", "properties": { "N° revue TES": "5", "Titre": "Les injections derrière revêtement dans les terrains Karstifiés du Canal de Provence", "Page": 217, "Pays": "France", "Commune": "Riboux", "Code postal": 13780, "Latitude": 5.757521, "Longitude": 43.303178, "Mode transport": "fluvial" }, "geometry": { "type": "Point", "coordinates": [ 43.303178, 5.757521 ] } },
{ "type": "Feature", "properties": { "N° revue TES": "7", "Titre": "Prolongement à ST-Denis de la ligne n°13 du Métropolitain", "Page": 17, "Pays": "France", "Commune": "Paris", "Code postal": 75000, "Latitude": 2.347, "Longitude": 48.859, "Mode transport": "métro\/tram" }, "geometry": { "type": "Point", "coordinates": [ 48.859, 2.347 ] } },
{ "type": "Feature", "properties": { "N° revue TES": "9", "Titre": "Construction mécanisée des Tunnels reliant les stations \"CHATELET-les-HALLES\" et \"GARE de LYON\"", "Page": 93, "Pays": "France", "Commune": "Paris", "Code postal": 75000, "Latitude": 2.347, "Longitude": 48.859, "Mode transport": "métro\/tram" }, "geometry": { "type": "Point", "coordinates": [ 48.859, 2.347 ] } },
{ "type": "Feature", "properties": { "N° revue TES": "11", "Titre": "Le franchissement de la zone MESOZOIQUE par le Tunnel Routier du Saint-Gothard", "Page": 173, "Pays": "Suisse", "Commune": "Andermatt", "Code postal": 6490, "Latitude": 46.6340499, "Longitude": 8.5948148, "Mode transport": "routier" }, "geometry": { "type": "Point", "coordinates": [ 8.5948148, 46.6340499 ] } },
{ "type": "Feature", "properties": { "N° revue TES": "12", "Titre": "Tunnel sous l'Elbe : Communiqué par les Services Tech. de la ville de Hambourg", "Page": 213, "Pays": "Allemagne", "Commune": "Hambourg", "Code postal": null, "Latitude": 53.550341, "Longitude": 10.000654, "Mode transport": "routier" }, "geometry": { "type": "Point", "coordinates": [ 10.000654, 53.550341 ] } },
{ "type": "Feature", "properties": { "N° revue TES": "13", "Titre": "Entretiens des Ouvrages Souterrains SNCF Tunnel de BLAISY-Bas", "Page": 25, "Pays": "France", "Commune": "Blaisy-bas", "Code postal": 21540, "Latitude": 4.739472, "Longitude": 47.371328, "Mode transport": "ferroviaire" }, "geometry": { "type": "Point", "coordinates": [ 47.371328, 4.739472 ] } },
{ "type": "Feature", "properties": { "N° revue TES": "14", "Titre": "Réalisation du métro de Munich", "Page": 77, "Pays": "Allemagne", "Commune": "Munich", "Code postal": null, "Latitude": 48.1371079, "Longitude": 11.5753822, "Mode transport": "métro\/tram" }, "geometry": { "type": "Point", "coordinates": [ 11.5753822, 48.1371079 ] } },
{ "type": "Feature", "properties": { "N° revue TES": "15", "Titre": "Galerie d'assainissement du Lac du BOURGET", "Page": 120, "Pays": "France", "Commune": "Le Bourget du Lac", "Code postal": 73370, "Latitude": 5.85833, "Longitude": 45.641567, "Mode transport": "énergie\/réseau" }, "geometry": { "type": "Point", "coordinates": [ 45.641567, 5.85833 ] } },
{ "type": "Feature", "properties": { "N° revue TES": "16", "Titre": "Les travaux du tunnel de KATSCHBERG et du TAUERN de 1970 à 1975", "Page": 157, "Pays": "Autriche", "Commune": "Salzbourg", "Code postal": null, "Latitude": 47.7981346, "Longitude": 13.0464806, "Mode transport": "routier" }, "geometry": { "type": "Point", "coordinates": [ 13.0464806, 47.7981346 ] } },
{ "type": "Feature", "properties": { "N° revue TES": "17", "Titre": "Les Travaux du tunnel du Katschberg et du Tauern", "Page": 208, "Pays": "Autriche", "Commune": "Salzbourg", "Code postal": null, "Latitude": 47.7981346, "Longitude": 13.0464806, "Mode transport": "routier" }, "geometry": { "type": "Point", "coordinates": [ 13.0464806, 47.7981346 ] } },
{ "type": "Feature", "properties": { "N° revue TES": "17", "Titre": "Aménagement du Canal de Provence - Les Galeries de la Ste-Baume", "Page": 187, "Pays": "France", "Commune": "Riboux", "Code postal": 13780, "Latitude": 5.757521, "Longitude": 43.303178, "Mode transport": "fluvial" }, "geometry": { "type": "Point", "coordinates": [ 43.303178, 5.757521 ] } },
{ "type": "Feature", "properties": { "N° revue TES": "17", "Titre": "S.N.C.F. : Tranchée couverte de Sevran", "Page": 204, "Pays": "France", "Commune": "Sevran ", "Code postal": 93071, "Latitude": 2.521133, "Longitude": 48.935967, "Mode transport": "ferroviaire" }, "geometry": { "type": "Point", "coordinates": [ 48.935967, 2.521133 ] } },
{ "type": "Feature", "properties": { "N° revue TES": "17", "Titre": "Le Drecht Tunnel", "Page": 199, "Pays": "Pays-Bas", "Commune": "Dordrecht", "Code postal": null, "Latitude": 51.814429, "Longitude": 4.6692438, "Mode transport": "routier" }, "geometry": { "type": "Point", "coordinates": [ 4.6692438, 51.814429 ] } },
{ "type": "Feature", "properties": { "N° revue TES": "18", "Titre": "Construction du Super Synchroton à protons souterrain du C.E.R.N. à Genève", "Page": 227, "Pays": "France", "Commune": "Cessy", "Code postal": 1170, "Latitude": 46.3181308, "Longitude": 6.0691189, "Mode transport": "énergie\/réseau" }, "geometry": { "type": "Point", "coordinates": [ 6.0691189, 46.3181308 ] } },
{ "type": "Feature", "properties": { "N° revue TES": "19", "Titre": "Le Revétement des tunnels par buses métalliques : Tunnel et Canal de FOUG", "Page": 26, "Pays": "France", "Commune": "Lay-Saint-Remy", "Code postal": 54570, "Latitude": 5.760981, "Longitude": 48.680863, "Mode transport": "fluvial" }, "geometry": { "type": "Point", "coordinates": [ 48.680863, 5.760981 ] } },
{ "type": "Feature", "properties": { "N° revue TES": "19", "Titre": "La Construction du Tunnel de Grigny", "Page": 10, "Pays": "France", "Commune": "Grigny", "Code postal": 91350, "Latitude": 2.383271, "Longitude": 48.658719, "Mode transport": "routier" }, "geometry": { "type": "Point", "coordinates": [ 48.658719, 2.383271 ] } },
{ "type": "Feature", "properties": { "N° revue TES": "21", "Titre": "Le nouveau tunnel de Saint-Cloud", "Page": 122, "Pays": "France", "Commune": "Saint-Cloud", "Code postal": 92210, "Latitude": 2.211247, "Longitude": 48.850588, "Mode transport": "routier" }, "geometry": { "type": "Point", "coordinates": [ 48.850588, 2.211247 ] } },
{ "type": "Feature", "properties": { "N° revue TES": "27", "Titre": "La ventilation de chantier lors de la construction du tunnel routier au Saint Gothard", "Page": 125, "Pays": "Suisse", "Commune": "Andermatt", "Code postal": 6490, "Latitude": 46.6340499, "Longitude": 8.5948148, "Mode transport": "ferroviaire" }, "geometry": { "type": "Point", "coordinates": [ 8.5948148, 46.6340499 ] } },
{ "type": "Feature", "properties": { "N° revue TES": "28", "Titre": "La perçée d'Arc-Isère, galerie de Belledonne", "Page": 188, "Pays": "France", "Commune": "Allevard", "Code postal": 38580, "Latitude": 6.085338, "Longitude": 45.397692, "Mode transport": "énergie\/réseau" }, "geometry": { "type": "Point", "coordinates": [ 45.397692, 6.085338 ] } },
{ "type": "Feature", "properties": { "N° revue TES": "28", "Titre": "Inauguration du métro de Lyon", "Page": 186, "Pays": "France", "Commune": "Lyon", "Code postal": 69000, "Latitude": 4.826023, "Longitude": 45.748952, "Mode transport": "métro\/tram" }, "geometry": { "type": "Point", "coordinates": [ 45.748952, 4.826023 ] } },
{ "type": "Feature", "properties": { "N° revue TES": "29", "Titre": "Tunnels de la route du Front de Mer 11 BASTIA", "Page": 237, "Pays": "France", "Commune": "Bastia", "Code postal": 20200, "Latitude": 9.435179, "Longitude": 42.687608, "Mode transport": "routier" }, "geometry": { "type": "Point", "coordinates": [ 42.687608, 9.435179 ] } },
{ "type": "Feature", "properties": { "N° revue TES": "29", "Titre": "Rupture du revêtement de la Galerie de Montrieux du Canal de Provence", "Page": 208, "Pays": "France", "Commune": "Méounes-lès-Montrieux", "Code postal": 83136, "Latitude": 5.973026, "Longitude": 43.284583, "Mode transport": "fluvial" }, "geometry": { "type": "Point", "coordinates": [ 43.284583, 5.973026 ] } },
{ "type": "Feature", "properties": { "N° revue TES": "29", "Titre": "Les ouvrages souterrains de l'Aménagement E.D.F. de Montezic", "Page": 232, "Pays": "France", "Commune": "Montézic", "Code postal": 12460, "Latitude": 2.639902, "Longitude": 44.708455, "Mode transport": "énergie\/réseau" }, "geometry": { "type": "Point", "coordinates": [ 44.708455, 2.639902 ] } },
{ "type": "Feature", "properties": { "N° revue TES": "29", "Titre": "Les travaux souterrains de l'Aménagement de Grand'Maison", "Page": 231, "Pays": "France", "Commune": "Vaujany", "Code postal": 38114, "Latitude": 6.073673, "Longitude": 45.15796, "Mode transport": "énergie\/réseau" }, "geometry": { "type": "Point", "coordinates": [ 45.15796, 6.073673 ] } },
{ "type": "Feature", "properties": { "N° revue TES": "30", "Titre": "Prolongement de la ligne n° 10 - Métro de Paris", "Page": 258, "Pays": "France", "Commune": "Paris", "Code postal": 75000, "Latitude": 2.347, "Longitude": 48.859, "Mode transport": "métro\/tram" }, "geometry": { "type": "Point", "coordinates": [ 48.859, 2.347 ] } },
{ "type": "Feature", "properties": { "N° revue TES": "30", "Titre": "Ligne de CONI à VINTIMILLE - Remise en état des tunnels", "Page": 306, "Pays": "Italie", "Commune": "Vintimille", "Code postal": 18039, "Latitude": 43.7917623, "Longitude": 7.6033131, "Mode transport": "ferroviaire" }, "geometry": { "type": "Point", "coordinates": [ 7.6033131, 43.7917623 ] } },
{ "type": "Feature", "properties": { "N° revue TES": "30", "Titre": "Tunnel du Seikan", "Page": 303, "Pays": "Japon", "Commune": "Imabetsu", "Code postal": null, "Latitude": 41.1819544, "Longitude": 140.4819199, "Mode transport": "ferroviaire" }, "geometry": { "type": "Point", "coordinates": [ 140.4819199, 41.1819544 ] } },
{ "type": "Feature", "properties": { "N° revue TES": "31", "Titre": "Les Tunnels de l'Autoroute A8", "Page": 28, "Pays": "France", "Commune": "Meyreuil", "Code postal": 13590, "Latitude": 5.504206, "Longitude": 43.487174, "Mode transport": "routier" }, "geometry": { "type": "Point", "coordinates": [ 43.487174, 5.504206 ] } },
{ "type": "Feature", "properties": { "N° revue TES": "33", "Titre": "Creusement au Tunnelier de la dérivation provisoire de l'Eau d'Olle sur l'Aménagement de Grand-Maison", "Page": 166, "Pays": "France", "Commune": "Vaujany", "Code postal": 38114, "Latitude": 6.073673, "Longitude": 45.15796, "Mode transport": "énergie\/réseau" }, "geometry": { "type": "Point", "coordinates": [ 45.15796, 6.073673 ] } },
{ "type": "Feature", "properties": { "N° revue TES": "35", "Titre": "Etanchéité du tunnel de BAREGG", "Page": 302, "Pays": "Suisse", "Commune": "Baden", "Code postal": null, "Latitude": 47.4736827, "Longitude": 8.3086822, "Mode transport": "routier" }, "geometry": { "type": "Point", "coordinates": [ 8.3086822, 47.4736827 ] } },
{ "type": "Feature", "properties": { "N° revue TES": "35", "Titre": "Réparation de tunnels de transport de phosphores dans le port de SFAX", "Page": 298, "Pays": "Tunisie", "Commune": "Thyna", "Code postal": null, "Latitude": 34.688015, "Longitude": 10.7075059, "Mode transport": "énergie\/réseau" }, "geometry": { "type": "Point", "coordinates": [ 10.7075059, 34.688015 ] } },
{ "type": "Feature", "properties": { "N° revue TES": "39", "Titre": "Tunnel routier du FREJUS - Puits de ventilation", "Page": 201, "Pays": "France", "Commune": "Modane", "Code postal": 73500, "Latitude": 6.664194, "Longitude": 45.194019, "Mode transport": "routier" }, "geometry": { "type": "Point", "coordinates": [ 45.194019, 6.664194 ] } },
{ "type": "Feature", "properties": { "N° revue TES": "39", "Titre": "Tunnel du Fréjus", "Page": 205, "Pays": "France", "Commune": "Modane", "Code postal": 73500, "Latitude": 6.664194, "Longitude": 45.194019, "Mode transport": "routier" }, "geometry": { "type": "Point", "coordinates": [ 45.194019, 6.664194 ] } },
{ "type": "Feature", "properties": { "N° revue TES": "39", "Titre": "Prolongement de la ligne 8 de la RATP à Gare du Nord", "Page": 178, "Pays": "France", "Commune": "Paris", "Code postal": 75000, "Latitude": 2.347, "Longitude": 48.859, "Mode transport": "métro\/tram" }, "geometry": { "type": "Point", "coordinates": [ 48.859, 2.347 ] } },
{ "type": "Feature", "properties": { "N° revue TES": "40", "Titre": "Traitement d'un accident karstique rencontré avec le tunnel de l'Epine sur l'autoroute A. 43 Lyon-Chambery", "Page": 229, "Pays": "France", "Commune": "Dullin", "Code postal": 73610, "Latitude": 5.751502, "Longitude": 45.548779, "Mode transport": "routier" }, "geometry": { "type": "Point", "coordinates": [ 45.548779, 5.751502 ] } },
{ "type": "Feature", "properties": { "N° revue TES": "41", "Titre": "Métro de Lyon", "Page": 287, "Pays": "France", "Commune": "Lyon", "Code postal": 69000, "Latitude": 4.826023, "Longitude": 45.748952, "Mode transport": "métro\/tram" }, "geometry": { "type": "Point", "coordinates": [ 45.748952, 4.826023 ] } },
{ "type": "Feature", "properties": { "N° revue TES": "41", "Titre": "La construction du tunnel de Junkville au Gabon", "Page": 276, "Pays": "Gabon", "Commune": "Junckville", "Code postal": null, "Latitude": -0.7516488, "Longitude": 10.2104308, "Mode transport": "routier" }, "geometry": { "type": "Point", "coordinates": [ 10.2104308, -0.7516488 ] } },
{ "type": "Feature", "properties": { "N° revue TES": "42", "Titre": "Reconnaissance géologique de la ligne D du métro de Lyon", "Page": 353, "Pays": "France", "Commune": "Lyon", "Code postal": 69000, "Latitude": 4.826023, "Longitude": 45.748952, "Mode transport": "métro\/tram" }, "geometry": { "type": "Point", "coordinates": [ 45.748952, 4.826023 ] } },
{ "type": "Feature", "properties": { "N° revue TES": "42", "Titre": "Inauguration du Tunnel du Fréjus", "Page": 351, "Pays": "France", "Commune": "Modane", "Code postal": 73500, "Latitude": 6.664194, "Longitude": 45.194019, "Mode transport": "routier" }, "geometry": { "type": "Point", "coordinates": [ 45.194019, 6.664194 ] } },
{ "type": "Feature", "properties": { "N° revue TES": "42", "Titre": "Ouverture du tunnel du Saint Gothard", "Page": 349, "Pays": "Suisse", "Commune": "Andermatt", "Code postal": 6490, "Latitude": 46.6340499, "Longitude": 8.5948148, "Mode transport": "ferroviaire" }, "geometry": { "type": "Point", "coordinates": [ 8.5948148, 46.6340499 ] } },
{ "type": "Feature", "properties": { "N° revue TES": "43", "Titre": "Deuxième percée d'un tunnel de New-York", "Page": 43, "Pays": "Etats-Unis", "Commune": "New York", "Code postal": null, "Latitude": 40.7127281, "Longitude": -74.0060152, "Mode transport": "routier" }, "geometry": { "type": "Point", "coordinates": [ -74.0060152, 40.7127281 ] } },
{ "type": "Feature", "properties": { "N° revue TES": "43", "Titre": "Le tunnel de Paijanne", "Page": 39, "Pays": "Finlande", "Commune": "Helsinki", "Code postal": null, "Latitude": 60.1674881, "Longitude": 24.9427473, "Mode transport": "énergie\/réseau" }, "geometry": { "type": "Point", "coordinates": [ 24.9427473, 60.1674881 ] } },
{ "type": "Feature", "properties": { "N° revue TES": "47", "Titre": "Remplacement des cloisons des galeries de ventilation du tunnel de la Croix-Rousse à Lyon ", "Page": 218, "Pays": "France", "Commune": "Lyon", "Code postal": 69000, "Latitude": 4.826023, "Longitude": 45.748952, "Mode transport": "routier" }, "geometry": { "type": "Point", "coordinates": [ 45.748952, 4.826023 ] } },
{ "type": "Feature", "properties": { "N° revue TES": "47", "Titre": "Prolongement de la ligne 10 : Boulogne St-Cloud", "Page": 231, "Pays": "France", "Commune": "Saint-Cloud", "Code postal": 92210, "Latitude": 2.211247, "Longitude": 48.850588, "Mode transport": "métro\/tram" }, "geometry": { "type": "Point", "coordinates": [ 48.850588, 2.211247 ] } },
{ "type": "Feature", "properties": { "N° revue TES": "48", "Titre": "Creusement à rendement élevé d'une galerie de déblocage du charbon à l'aide de l'explosif dans la mine de PATTBERG du Bassin Rhénan de la Bergbau AG Niederheim", "Page": 262, "Pays": "Allemagne", "Commune": "Pattberg", "Code postal": null, "Latitude": 51.3908864, "Longitude": 7.2266843, "Mode transport": "énergie\/réseau" }, "geometry": { "type": "Point", "coordinates": [ 7.2266843, 51.3908864 ] } },
{ "type": "Feature", "properties": { "N° revue TES": "48", "Titre": "La galerie de Wôlla Autriche", "Page": 282, "Pays": "Autriche", "Commune": "Ausserfragant", "Code postal": 9831, "Latitude": 46.934821, "Longitude": 13.1063176, "Mode transport": "énergie\/réseau" }, "geometry": { "type": "Point", "coordinates": [ 13.1063176, 46.934821 ] } },
{ "type": "Feature", "properties": { "N° revue TES": "48", "Titre": "Desserte de Bobigny-Préfecture par un prolongement de la ligne 5 du métro de Paris", "Page": 255, "Pays": "France", "Commune": "Bobigny", "Code postal": 93022, "Latitude": 2.443342, "Longitude": 48.907365, "Mode transport": "métro\/tram" }, "geometry": { "type": "Point", "coordinates": [ 48.907365, 2.443342 ] } },
{ "type": "Feature", "properties": { "N° revue TES": "49", "Titre": "Calculs et mesures in-situ dans la section creusée au bouclier sous l'Elbe à Hambourg", "Page": 29, "Pays": "Allemagne", "Commune": "Hambourg", "Code postal": null, "Latitude": 53.550341, "Longitude": 10.000654, "Mode transport": "routier" }, "geometry": { "type": "Point", "coordinates": [ 10.000654, 53.550341 ] } },
{ "type": "Feature", "properties": { "N° revue TES": "49", "Titre": "Réalisation des galeries et des puits de rejet d'eau de mer à la centrale nucléaire EDF de Paluel", "Page": 15, "Pays": "France", "Commune": "Paluel", "Code postal": 76450, "Latitude": 0.626675, "Longitude": 49.843402, "Mode transport": "énergie\/réseau" }, "geometry": { "type": "Point", "coordinates": [ 49.843402, 0.626675 ] } },
{ "type": "Feature", "properties": { "N° revue TES": "51", "Titre": "Le franchissement du Rhône par la ligne A du métro de Lyon", "Page": 115, "Pays": "France", "Commune": "Lyon", "Code postal": 69000, "Latitude": 4.826023, "Longitude": 45.748952, "Mode transport": "métro\/tram" }, "geometry": { "type": "Point", "coordinates": [ 45.748952, 4.826023 ] } },
{ "type": "Feature", "properties": { "N° revue TES": "51", "Titre": "Le prolongement de la ligne C du métro de Lyon au-delà de la station Hénon", "Page": 121, "Pays": "France", "Commune": "Lyon", "Code postal": 69000, "Latitude": 4.826023, "Longitude": 45.748952, "Mode transport": "métro\/tram" }, "geometry": { "type": "Point", "coordinates": [ 45.748952, 4.826023 ] } },
{ "type": "Feature", "properties": { "N° revue TES": "52", "Titre": "Métro de Marseille - Variantes nord de de la deuxième ligne", "Page": 150, "Pays": "France", "Commune": "Marseille", "Code postal": 13000, "Latitude": 5.353055, "Longitude": 43.281951, "Mode transport": "métro\/tram" }, "geometry": { "type": "Point", "coordinates": [ 43.281951, 5.353055 ] } },
{ "type": "Feature", "properties": { "N° revue TES": "53", "Titre": "Ligne A du RER - Branche de Marne-la-Vallée : Prolongement de la ligne 13 à Asnières et Gennevilliers", "Page": 211, "Pays": "France", "Commune": "Asnières", "Code postal": 92600, "Latitude": 2.281873, "Longitude": 48.908586, "Mode transport": "ferroviaire" }, "geometry": { "type": "Point", "coordinates": [ 48.908586, 2.281873 ] } },
{ "type": "Feature", "properties": { "N° revue TES": "53", "Titre": "Tunnelier à contrepression - Réalisation d'un égout à Bordeaux", "Page": 222, "Pays": "France", "Commune": "Bordeaux", "Code postal": 33000, "Latitude": -0.587877, "Longitude": 44.851895, "Mode transport": "énergie\/réseau" }, "geometry": { "type": "Point", "coordinates": [ 44.851895, -0.587877 ] } },
{ "type": "Feature", "properties": { "N° revue TES": "53", "Titre": "Le percement de la galerie principale du suréquipement de l'aménagement hydroélectrique du Pouget.", "Page": 202, "Pays": "France", "Commune": "Le Pouget", "Code postal": 34230, "Latitude": 3.517514, "Longitude": 43.591862, "Mode transport": "énergie\/réseau" }, "geometry": { "type": "Point", "coordinates": [ 43.591862, 3.517514 ] } },
{ "type": "Feature", "properties": { "N° revue TES": "54", "Titre": "Remise fin état du Tunnel du Col de Braus", "Page": 231, "Pays": "France", "Commune": "L'Escarène", "Code postal": 6057, "Latitude": 7.375689, "Longitude": 43.829757, "Mode transport": "ferroviaire" }, "geometry": { "type": "Point", "coordinates": [ 43.829757, 7.375689 ] } },
{ "type": "Feature", "properties": { "N° revue TES": "54", "Titre": "Projet de métro à Caracas", "Page": 249, "Pays": "Venezuela", "Commune": "Caracas", "Code postal": 1000, "Latitude": 10.5060934, "Longitude": -66.9146008, "Mode transport": "métro\/tram" }, "geometry": { "type": "Point", "coordinates": [ -66.9146008, 10.5060934 ] } },
{ "type": "Feature", "properties": { "N° revue TES": "55", "Titre": "RATP - Prolongement de la ligne de métro n°7", "Page": 43, "Pays": "France", "Commune": "Paris", "Code postal": 75000, "Latitude": 2.347, "Longitude": 48.859, "Mode transport": "métro\/tram" }, "geometry": { "type": "Point", "coordinates": [ 48.859, 2.347 ] } },
{ "type": "Feature", "properties": { "N° revue TES": "57", "Titre": "Etudes et Expériences concernant le comportement des courants vagabonds dans les ouvrages du métro de Berlin", "Page": 79, "Pays": "Allemagne", "Commune": "Berlin", "Code postal": 10, "Latitude": 52.510885, "Longitude": 13.3989367, "Mode transport": "métro\/tram" }, "geometry": { "type": "Point", "coordinates": [ 13.3989367, 52.510885 ] } },
{ "type": "Feature", "properties": { "N° revue TES": "57", "Titre": "Métro de Montréal - Expérience sur la corrosion électrolytique", "Page": 91, "Pays": "Canada", "Commune": "Montréal", "Code postal": null, "Latitude": 45.5031824, "Longitude": -73.5698065, "Mode transport": "métro\/tram" }, "geometry": { "type": "Point", "coordinates": [ -73.5698065, 45.5031824 ] } },
{ "type": "Feature", "properties": { "N° revue TES": "59", "Titre": "Coup de pelle symbolique au CERN", "Page": 253, "Pays": "France", "Commune": "Cessy", "Code postal": 1170, "Latitude": 46.3181308, "Longitude": 6.0691189, "Mode transport": "énergie\/réseau" }, "geometry": { "type": "Point", "coordinates": [ 6.0691189, 46.3181308 ] } },
{ "type": "Feature", "properties": { "N° revue TES": "59", "Titre": "Doublement du tunnel de Chalifert sur la ligne Paris-Strasbourg", "Page": 248, "Pays": "France", "Commune": "Chalifert", "Code postal": 77144, "Latitude": 2.771733, "Longitude": 48.895478, "Mode transport": "ferroviaire" }, "geometry": { "type": "Point", "coordinates": [ 48.895478, 2.771733 ] } },
{ "type": "Feature", "properties": { "N° revue TES": "59", "Titre": "Autoroute A55 Marseille-Fos-Tunnel des Treize-Vents", "Page": 250, "Pays": "France", "Commune": "Marseille", "Code postal": 13000, "Latitude": 5.353055, "Longitude": 43.281951, "Mode transport": "routier" }, "geometry": { "type": "Point", "coordinates": [ 43.281951, 5.353055 ] } },
{ "type": "Feature", "properties": { "N° revue TES": "60", "Titre": "Construction de stations de métro à Anvers avec utilisation de tubes poussés", "Page": 297, "Pays": "Belgique", "Commune": "Anvers", "Code postal": 2000, "Latitude": 51.2211097, "Longitude": 4.3997081, "Mode transport": "métro\/tram" }, "geometry": { "type": "Point", "coordinates": [ 4.3997081, 51.2211097 ] } },
{ "type": "Feature", "properties": { "N° revue TES": "60", "Titre": "Métro du Caire", "Page": 300, "Pays": "Egypte", "Commune": "Le Caire", "Code postal": null, "Latitude": 30.0443879, "Longitude": 31.2357257, "Mode transport": "métro\/tram" }, "geometry": { "type": "Point", "coordinates": [ 31.2357257, 30.0443879 ] } },
{ "type": "Feature", "properties": { "N° revue TES": "63", "Titre": "Utilisation des tubes de soutènement pour la construction des galeries du métro de Marseille", "Page": 105, "Pays": "France", "Commune": "Marseille", "Code postal": 13000, "Latitude": 5.353055, "Longitude": 43.281951, "Mode transport": "métro\/tram" }, "geometry": { "type": "Point", "coordinates": [ 43.281951, 5.353055 ] } },
{ "type": "Feature", "properties": { "N° revue TES": "64", "Titre": "Conception et certains procédés d'éxécution du métro de Bruxelles", "Page": 167, "Pays": "France", "Commune": "Bruxelles", "Code postal": 1000, "Latitude": 50.8465573, "Longitude": 4.351697, "Mode transport": "métro\/tram" }, "geometry": { "type": "Point", "coordinates": [ 4.351697, 50.8465573 ] } },
{ "type": "Feature", "properties": { "N° revue TES": "65", "Titre": "Conception et certains procédés d'éxécution du métro de Bruxelles", "Page": 205, "Pays": "Belgique", "Commune": "Bruxelles", "Code postal": 1000, "Latitude": 50.8465573, "Longitude": 4.351697, "Mode transport": "métro\/tram" }, "geometry": { "type": "Point", "coordinates": [ 4.351697, 50.8465573 ] } },
{ "type": "Feature", "properties": { "N° revue TES": "65", "Titre": "Inauguration des tunnels de l'A14", "Page": 240, "Pays": "France", "Commune": "Courbevoie", "Code postal": 92400, "Latitude": 2.267482, "Longitude": 48.902257, "Mode transport": "routier" }, "geometry": { "type": "Point", "coordinates": [ 48.902257, 2.267482 ] } },
{ "type": "Feature", "properties": { "N° revue TES": "66", "Titre": "Construction d'un tunnel et d'un parking souterrain au «'t Zand» de Bruges et Réaménagement en surface du site", "Page": 258, "Pays": "Belgique", "Commune": "Bruges", "Code postal": 8000, "Latitude": 51.2085526, "Longitude": 3.226772, "Mode transport": "routier" }, "geometry": { "type": "Point", "coordinates": [ 3.226772, 51.2085526 ] } },
{ "type": "Feature", "properties": { "N° revue TES": "70", "Titre": "Construction de trois tunnels ferroviaires en Algérie au Nord de Constantine", "Page": 154, "Pays": "Algérie", "Commune": "El Khroub", "Code postal": null, "Latitude": 36.2603681, "Longitude": 6.6970014, "Mode transport": "ferroviaire" }, "geometry": { "type": "Point", "coordinates": [ 6.6970014, 36.2603681 ] } },
{ "type": "Feature", "properties": { "N° revue TES": "70", "Titre": "Application de la congélation pour la réalisation de tunnels métros sous les immeubles \"Côte d'Or\" et \"Goulet Louise\" à Bruxelles", "Page": 143, "Pays": "Belgique", "Commune": "Bruxelles", "Code postal": 1000, "Latitude": 50.8465573, "Longitude": 4.351697, "Mode transport": "routier" }, "geometry": { "type": "Point", "coordinates": [ 4.351697, 50.8465573 ] } },
{ "type": "Feature", "properties": { "N° revue TES": "70", "Titre": "Auscultation du tunnel du Cadi (Espagne)", "Page": 169, "Pays": "Espagne", "Commune": "Cerdanya", "Code postal": 25720, "Latitude": 42.39140695, "Longitude": 1.8045191049582541, "Mode transport": "routier" }, "geometry": { "type": "Point", "coordinates": [ 1.804519104958254, 42.39140695 ] } },
{ "type": "Feature", "properties": { "N° revue TES": "73", "Titre": "Un atout pour l'Europe : le tunnel de Cadi (Espagne)", "Page": 11, "Pays": "Espagne", "Commune": "Cerdanya", "Code postal": 25720, "Latitude": 42.39140695, "Longitude": 1.8045191049582541, "Mode transport": "routier" }, "geometry": { "type": "Point", "coordinates": [ 1.804519104958254, 42.39140695 ] } },
{ "type": "Feature", "properties": { "N° revue TES": "74", "Titre": "Isolation contre tes bruits et les vibrations dans le pré-métro d'Anvers", "Page": 86, "Pays": "Belgique", "Commune": "Anvers", "Code postal": 2000, "Latitude": 51.2211097, "Longitude": 4.3997081, "Mode transport": "métro\/tram" }, "geometry": { "type": "Point", "coordinates": [ 4.3997081, 51.2211097 ] } },
{ "type": "Feature", "properties": { "N° revue TES": "75", "Titre": "Le métro du Caire - Les ouvrages de génie civil de la ligne régionale Nord-Sud", "Page": 127, "Pays": "Egypte", "Commune": "Le Caire", "Code postal": null, "Latitude": 30.0443879, "Longitude": 31.2357257, "Mode transport": "métro\/tram" }, "geometry": { "type": "Point", "coordinates": [ 31.2357257, 30.0443879 ] } },
{ "type": "Feature", "properties": { "N° revue TES": "77", "Titre": "La construction du tunnel autoroutier de Chamoise", "Page": 206, "Pays": "France", "Commune": "Nantua", "Code postal": 1130, "Latitude": 5.5995, "Longitude": 46.154802, "Mode transport": "routier" }, "geometry": { "type": "Point", "coordinates": [ 46.154802, 5.5995 ] } },
{ "type": "Feature", "properties": { "N° revue TES": "78", "Titre": "Fonçage horizontal de tubes métro d'Antwerpen", "Page": 268, "Pays": "Belgique", "Commune": "Anvers", "Code postal": 2000, "Latitude": 51.2211097, "Longitude": 4.3997081, "Mode transport": "métro\/tram" }, "geometry": { "type": "Point", "coordinates": [ 4.3997081, 51.2211097 ] } },
{ "type": "Feature", "properties": { "N° revue TES": "79", "Titre": "Traitement des venues d'eau dans un puits de ventilation du tunnel routier du Fréjus", "Page": 28, "Pays": "France", "Commune": "Modane", "Code postal": 73500, "Latitude": 6.664194, "Longitude": 45.194019, "Mode transport": "routier" }, "geometry": { "type": "Point", "coordinates": [ 45.194019, 6.664194 ] } },
{ "type": "Feature", "properties": { "N° revue TES": "79", "Titre": "Les tunnels autoroutiers de Nice", "Page": 5, "Pays": "France", "Commune": "Nice", "Code postal": 6000, "Latitude": 7.254637, "Longitude": 43.694773, "Mode transport": "routier" }, "geometry": { "type": "Point", "coordinates": [ 43.694773, 7.254637 ] } },
{ "type": "Feature", "properties": { "N° revue TES": "82", "Titre": "Etanchéité de la traversée sous-fluviale de la ligne D du métro de Lyon", "Page": 172, "Pays": "France", "Commune": "Lyon", "Code postal": 69000, "Latitude": 4.826023, "Longitude": 45.748952, "Mode transport": "métro\/tram" }, "geometry": { "type": "Point", "coordinates": [ 45.748952, 4.826023 ] } },
{ "type": "Feature", "properties": { "N° revue TES": "82", "Titre": "Elargissement du tunnel de Boulainvilliers", "Page": 187, "Pays": "France", "Commune": "Paris", "Code postal": 75016, "Latitude": 2.347, "Longitude": 48.859, "Mode transport": "routier" }, "geometry": { "type": "Point", "coordinates": [ 48.859, 2.347 ] } },
{ "type": "Feature", "properties": { "N° revue TES": "83", "Titre": "Consolidation par jet-mix de poches d'argile karstique au tunnel de Saint-Germain-en-Joux", "Page": 214, "Pays": "France", "Commune": "Saint-Germain-de-Joux", "Code postal": 1130, "Latitude": 5.738166, "Longitude": 46.181901, "Mode transport": "routier" }, "geometry": { "type": "Point", "coordinates": [ 46.181901, 5.738166 ] } },
{ "type": "Feature", "properties": { "N° revue TES": "85", "Titre": "Prolongements de la deuxième ligne du métro de Marseille", "Page": 13, "Pays": "France", "Commune": "Marseille", "Code postal": 13000, "Latitude": 5.353055, "Longitude": 43.281951, "Mode transport": "métro\/tram" }, "geometry": { "type": "Point", "coordinates": [ 43.281951, 5.353055 ] } },
{ "type": "Feature", "properties": { "N° revue TES": "88", "Titre": "Etanchéité des tunnels de métro et des tunnels routiers d'Anvers", "Page": 238, "Pays": "Belgique", "Commune": "Anvers", "Code postal": 2000, "Latitude": 51.2211097, "Longitude": 4.3997081, "Mode transport": "routier" }, "geometry": { "type": "Point", "coordinates": [ 4.3997081, 51.2211097 ] } },
{ "type": "Feature", "properties": { "N° revue TES": "89", "Titre": "Percement du tunnel des Chavants", "Page": 302, "Pays": "France", "Commune": "Les Houches", "Code postal": 74143, "Latitude": 6.793245, "Longitude": 45.909203, "Mode transport": "routier" }, "geometry": { "type": "Point", "coordinates": [ 45.909203, 6.793245 ] } },
{ "type": "Feature", "properties": { "N° revue TES": "90", "Titre": "Construction de la ligne 1 bis du métro de la communauté urbaine de Lille", "Page": 309, "Pays": "France", "Commune": "Lille", "Code postal": 59000, "Latitude": 3.045449, "Longitude": 50.630993, "Mode transport": "métro\/tram" }, "geometry": { "type": "Point", "coordinates": [ 50.630993, 3.045449 ] } },
{ "type": "Feature", "properties": { "N° revue TES": "91", "Titre": "Neyrpic - Un démarrage remarqué au fond du tunnel de Buech", "Page": 45, "Pays": "France", "Commune": "Aspres-sur-Buëch", "Code postal": 5140, "Latitude": 5.756232, "Longitude": 44.522208, "Mode transport": "ferroviaire" }, "geometry": { "type": "Point", "coordinates": [ 44.522208, 5.756232 ] } },
{ "type": "Feature", "properties": { "N° revue TES": "91", "Titre": "Autoroute A 40 Mâcon - Tunnel du Mont-Blanc", "Page": 7, "Pays": "France", "Commune": "Chamonix-Mont-Blanc", "Code postal": 74400, "Latitude": 6.893163, "Longitude": 45.948385, "Mode transport": "routier" }, "geometry": { "type": "Point", "coordinates": [ 45.948385, 6.893163 ] } },
{ "type": "Feature", "properties": { "N° revue TES": "91", "Titre": "Percement du tunnel de Villejust (Essonne) - TGV Atlantique", "Page": 47, "Pays": "France", "Commune": "Villejust", "Code postal": 91140, "Latitude": 2.220829, "Longitude": 48.675891, "Mode transport": "ferroviaire" }, "geometry": { "type": "Point", "coordinates": [ 48.675891, 2.220829 ] } },
{ "type": "Feature", "properties": { "N° revue TES": "94", "Titre": "Tunnel sous la Manche ", "Page": 161, "Pays": "France", "Commune": "Calais", "Code postal": 62100, "Latitude": 1.869497, "Longitude": 50.947795, "Mode transport": "ferroviaire" }, "geometry": { "type": "Point", "coordinates": [ 50.947795, 1.869497 ] } },
{ "type": "Feature", "properties": { "N° revue TES": "94", "Titre": "Ventilation des longs tunnels pendant leur creusement - Application au tunnel sous la Manche", "Page": 175, "Pays": "France", "Commune": "Calais", "Code postal": 62100, "Latitude": 1.869497, "Longitude": 50.947795, "Mode transport": "ferroviaire" }, "geometry": { "type": "Point", "coordinates": [ 50.947795, 1.869497 ] } },
{ "type": "Feature", "properties": { "N° revue TES": "95", "Titre": "Le métro de Toulouse - Un grand projet pour l'agglomération", "Page": 253, "Pays": "France", "Commune": "Toulouse", "Code postal": 31000, "Latitude": 1.448298, "Longitude": 43.613746, "Mode transport": "métro\/tram" }, "geometry": { "type": "Point", "coordinates": [ 43.613746, 1.448298 ] } },
{ "type": "Feature", "properties": { "N° revue TES": "96", "Titre": "Les tunnels du Storebaelt", "Page": 273, "Pays": "Danemark", "Commune": "Stagelse", "Code postal": null, "Latitude": 55.40532, "Longitude": 11.354264, "Mode transport": "routier" }, "geometry": { "type": "Point", "coordinates": [ 11.354264, 55.40532 ] } },
{ "type": "Feature", "properties": { "N° revue TES": "96", "Titre": "Le doublement du tunnel de l'Epine", "Page": 279, "Pays": "France", "Commune": "Dullin", "Code postal": 73610, "Latitude": 5.751502, "Longitude": 45.548779, "Mode transport": "routier" }, "geometry": { "type": "Point", "coordinates": [ 45.548779, 5.751502 ] } },
{ "type": "Feature", "properties": { "N° revue TES": "96", "Titre": "Les tirs d'essais pour le doublement du tunnel de l'Epine", "Page": 285, "Pays": "France", "Commune": "Dullin", "Code postal": 73610, "Latitude": 5.751502, "Longitude": 45.548779, "Mode transport": "routier" }, "geometry": { "type": "Point", "coordinates": [ 45.548779, 5.751502 ] } },
{ "type": "Feature", "properties": { "N° revue TES": "96", "Titre": "Travaux préparatoires au doublement du tunnel de l'Epine : Confortement des piédroits du tube nord", "Page": 289, "Pays": "France", "Commune": "Dullin", "Code postal": 73610, "Latitude": 5.751502, "Longitude": 45.548779, "Mode transport": "routier" }, "geometry": { "type": "Point", "coordinates": [ 45.548779, 5.751502 ] } },
{ "type": "Feature", "properties": { "N° revue TES": "96", "Titre": "Le tunnel de l'Arme - Dernier ouvrage de l'autoroute A 8", "Page": 267, "Pays": "France", "Commune": "Menton", "Code postal": 6500, "Latitude": 7.515789, "Longitude": 43.783874, "Mode transport": "routier" }, "geometry": { "type": "Point", "coordinates": [ 43.783874, 7.515789 ] } },
{ "type": "Feature", "properties": { "N° revue TES": "97", "Titre": "Sollicitations dynamiques dues à des tirs de mines - Application à la vérification des gaines de ventilation du tube nord de l'Epine lors du creusement du tube sud", "Page": 23, "Pays": "France", "Commune": "Dullin", "Code postal": 73610, "Latitude": 5.751502, "Longitude": 45.548779, "Mode transport": "routier" }, "geometry": { "type": "Point", "coordinates": [ 45.548779, 5.751502 ] } },
{ "type": "Feature", "properties": { "N° revue TES": "97", "Titre": "Prolongement à La Défense de la ligne 1 du métro de Paris - Ouvrages ferroviaires et routiers dans Neuilly", "Page": 33, "Pays": "France", "Commune": "Neuilly", "Code postal": 92200, "Latitude": 2.268649, "Longitude": 48.880807, "Mode transport": "métro\/tram" }, "geometry": { "type": "Point", "coordinates": [ 48.880807, 2.268649 ] } },
{ "type": "Feature", "properties": { "N° revue TES": "97", "Titre": "Etanchéité des accès souterrains au centre commercial Bercy 2 : Mise en oeuvre d'une géomembrane P.V.C. translucide", "Page": 47, "Pays": "France", "Commune": "Paris", "Code postal": 75000, "Latitude": 2.347, "Longitude": 48.859, "Mode transport": "énergie\/réseau" }, "geometry": { "type": "Point", "coordinates": [ 48.859, 2.347 ] } },
{ "type": "Feature", "properties": { "N° revue TES": "97", "Titre": "Les tunnels de Saint-Germain-de-Joux et de Châtillon-en-Michaille sur A 40 - Travaux de génie civil", "Page": 4, "Pays": "France", "Commune": "Saint-Germain-de-Joux", "Code postal": 1130, "Latitude": 5.738166, "Longitude": 46.181901, "Mode transport": "routier" }, "geometry": { "type": "Point", "coordinates": [ 46.181901, 5.738166 ] } },
{ "type": "Feature", "properties": { "N° revue TES": "97", "Titre": "Les tunnels de Saint-Germain-de-Joux et de Châtillon-en-Michaille sur A 40 - Equipements d'exploitation", "Page": 13, "Pays": "France", "Commune": "Saint-Germain-de-Joux", "Code postal": 1130, "Latitude": 5.738166, "Longitude": 46.181901, "Mode transport": "routier" }, "geometry": { "type": "Point", "coordinates": [ 46.181901, 5.738166 ] } },
{ "type": "Feature", "properties": { "N° revue TES": "97", "Titre": "Autoroute A 51 - Val-de-Durance. Section Manosque - Sisteron. Les tunnels de La Baume à Sisteron", "Page": 28, "Pays": "France", "Commune": "Sisteron", "Code postal": 4200, "Latitude": 44.1963467, "Longitude": 5.9443791, "Mode transport": "routier" }, "geometry": { "type": "Point", "coordinates": [ 5.9443791, 44.1963467 ] } },
{ "type": "Feature", "properties": { "N° revue TES": "97", "Titre": "Métro de Toulouse - Franchissement par congélation des sols de la gare Matabiau et du Canal du Midi", "Page": 41, "Pays": "France", "Commune": "Toulouse", "Code postal": 31000, "Latitude": 1.448298, "Longitude": 43.613746, "Mode transport": "métro\/tram" }, "geometry": { "type": "Point", "coordinates": [ 43.613746, 1.448298 ] } },
{ "type": "Feature", "properties": { "N° revue TES": "99", "Titre": "Tunnel de l'Epine - Poursuite des travaux de doublement", "Page": 151, "Pays": "France", "Commune": "Dullin", "Code postal": 73610, "Latitude": 5.751502, "Longitude": 45.548779, "Mode transport": "routier" }, "geometry": { "type": "Point", "coordinates": [ 45.548779, 5.751502 ] } },
{ "type": "Feature", "properties": { "N° revue TES": "100", "Titre": "Le tunnel de Liefkenshoek dans le Ring Nord d'Anvers (Belgique)", "Page": 185, "Pays": "Belgique", "Commune": "Anvers", "Code postal": 2000, "Latitude": 51.2211097, "Longitude": 4.3997081, "Mode transport": "ferroviaire" }, "geometry": { "type": "Point", "coordinates": [ 4.3997081, 51.2211097 ] } },
{ "type": "Feature", "properties": { "N° revue TES": "100", "Titre": "Etenchéité du tunnel de l'Epine", "Page": 181, "Pays": "France", "Commune": "Dullin", "Code postal": 73610, "Latitude": 5.751502, "Longitude": 45.548779, "Mode transport": "routier" }, "geometry": { "type": "Point", "coordinates": [ 45.548779, 5.751502 ] } },
{ "type": "Feature", "properties": { "N° revue TES": "100", "Titre": "Contournement autoroutier de Nice. Traitement des tunnels en site urbain", "Page": 203, "Pays": "France", "Commune": "Nice", "Code postal": 6000, "Latitude": 7.254637, "Longitude": 43.694773, "Mode transport": "routier" }, "geometry": { "type": "Point", "coordinates": [ 43.694773, 7.254637 ] } },
{ "type": "Feature", "properties": { "N° revue TES": "101", "Titre": "Réalisation de deux tunnels autoroutiers en terrains miniers à Liège (Belgique)", "Page": 251, "Pays": "Belgique", "Commune": "Liège", "Code postal": null, "Latitude": 50.6450944, "Longitude": 5.5736112, "Mode transport": "routier" }, "geometry": { "type": "Point", "coordinates": [ 5.5736112, 50.6450944 ] } },
{ "type": "Feature", "properties": { "N° revue TES": "101", "Titre": "Avancement du forage du tunnel sous la Manche au début septembre", "Page": 221, "Pays": "France", "Commune": "Calais", "Code postal": 62100, "Latitude": 1.869497, "Longitude": 50.947795, "Mode transport": "ferroviaire" }, "geometry": { "type": "Point", "coordinates": [ 50.947795, 1.869497 ] } },
{ "type": "Feature", "properties": { "N° revue TES": "102", "Titre": "Un chantier de microtunnelier au Mans", "Page": 311, "Pays": "France", "Commune": "Pruillé-le-Chétif", "Code postal": 72000, "Latitude": 0.126916, "Longitude": 47.990506, "Mode transport": "énergie\/réseau" }, "geometry": { "type": "Point", "coordinates": [ 47.990506, 0.126916 ] } },
{ "type": "Feature", "properties": { "N° revue TES": "103", "Titre": "La galerie du Lubéron", "Page": 25, "Pays": "France", "Commune": "Gargas", "Code postal": 84400, "Latitude": 5.34669, "Longitude": 43.892591, "Mode transport": "énergie\/réseau" }, "geometry": { "type": "Point", "coordinates": [ 43.892591, 5.34669 ] } },
{ "type": "Feature", "properties": { "N° revue TES": "103", "Titre": "Le métro de Lille à l'heure des \"grands franchissements européens\"", "Page": 38, "Pays": "France", "Commune": "Lille", "Code postal": 59000, "Latitude": 3.045449, "Longitude": 50.630993, "Mode transport": "métro\/tram" }, "geometry": { "type": "Point", "coordinates": [ 50.630993, 3.045449 ] } },
{ "type": "Feature", "properties": { "N° revue TES": "103", "Titre": "L'expérience du tunnel du Reveston en béton projeté fibré", "Page": 19, "Pays": "France", "Commune": "Malaucène", "Code postal": 6710, "Latitude": 5.131577, "Longitude": 44.173866, "Mode transport": "routier" }, "geometry": { "type": "Point", "coordinates": [ 44.173866, 5.131577 ] } },
{ "type": "Feature", "properties": { "N° revue TES": "106", "Titre": "Traversée souterraine de Toulon", "Page": 177, "Pays": "France", "Commune": "Toulon", "Code postal": 83200, "Latitude": 5.899868, "Longitude": 43.146239, "Mode transport": "routier" }, "geometry": { "type": "Point", "coordinates": [ 43.146239, 5.899868 ] } },
{ "type": "Feature", "properties": { "N° revue TES": "108", "Titre": "Construction de l'Emissaire Sèvres-Achères lot 3", "Page": 255, "Pays": "France", "Commune": "Achères", "Code postal": 78260, "Latitude": 2.080148, "Longitude": 48.970666, "Mode transport": "énergie\/réseau" }, "geometry": { "type": "Point", "coordinates": [ 48.970666, 2.080148 ] } },
{ "type": "Feature", "properties": { "N° revue TES": "108", "Titre": "Le Tunnel du Siaix et ses gaines de ventilation", "Page": 287, "Pays": "France", "Commune": "Aime-la-Plagne", "Code postal": 73210, "Latitude": 6.62575, "Longitude": 45.538585, "Mode transport": "routier" }, "geometry": { "type": "Point", "coordinates": [ 45.538585, 6.62575 ] } },
{ "type": "Feature", "properties": { "N° revue TES": "108", "Titre": "Le Tunnel de Cornil", "Page": 280, "Pays": "France", "Commune": "Cornil", "Code postal": 19150, "Latitude": 1.695246, "Longitude": 45.210591, "Mode transport": "routier" }, "geometry": { "type": "Point", "coordinates": [ 45.210591, 1.695246 ] } },
{ "type": "Feature", "properties": { "N° revue TES": "108", "Titre": "Le Tunnal de Puymorens : un an de travaux", "Page": 299, "Pays": "France", "Commune": "Porté-Puymorens", "Code postal": 66760, "Latitude": 1.833482, "Longitude": 42.548561, "Mode transport": "routier" }, "geometry": { "type": "Point", "coordinates": [ 42.548561, 1.833482 ] } },
{ "type": "Feature", "properties": { "N° revue TES": "110", "Titre": "S.A.T.A.N. - suivi automatique des Tunnels Autoroutiers de Nice", "Page": 91, "Pays": "France", "Commune": "Nice", "Code postal": 6000, "Latitude": 7.254637, "Longitude": 43.694773, "Mode transport": "routier" }, "geometry": { "type": "Point", "coordinates": [ 43.694773, 7.254637 ] } },
{ "type": "Feature", "properties": { "N° revue TES": "111", "Titre": "Sécurité au Feu du Tunnel LIEFKENSHOEK. Dimensionnement de la solution retenue", "Page": 190, "Pays": "Belgique", "Commune": "Anvers", "Code postal": 2000, "Latitude": 51.2211097, "Longitude": 4.3997081, "Mode transport": "routier" }, "geometry": { "type": "Point", "coordinates": [ 4.3997081, 51.2211097 ] } },
{ "type": "Feature", "properties": { "N° revue TES": "111", "Titre": "Bruxelles - Tunnel Befliard - Dispositifs de défense contre l'incendie", "Page": 185, "Pays": "Belgique", "Commune": "Bruxelles", "Code postal": 1000, "Latitude": 50.8465573, "Longitude": 4.351697, "Mode transport": "routier" }, "geometry": { "type": "Point", "coordinates": [ 4.351697, 50.8465573 ] } },
{ "type": "Feature", "properties": { "N° revue TES": "112", "Titre": "Emissaire Sèvres-Achères : la fin du tunnel", "Page": 213, "Pays": "France", "Commune": "Achères", "Code postal": 78260, "Latitude": 2.080148, "Longitude": 48.970666, "Mode transport": "énergie\/réseau" }, "geometry": { "type": "Point", "coordinates": [ 48.970666, 2.080148 ] } },
{ "type": "Feature", "properties": { "N° revue TES": "112", "Titre": "Nouvelle de chantier : Puymorens : un tunnel stratégique, une gestion de chantier complexe", "Page": 242, "Pays": "France", "Commune": "Porté-Puymorens", "Code postal": 66760, "Latitude": 1.833482, "Longitude": 42.548561, "Mode transport": "routier" }, "geometry": { "type": "Point", "coordinates": [ 42.548561, 1.833482 ] } },
{ "type": "Feature", "properties": { "N° revue TES": "113", "Titre": "Chaussées en béton dans le tunnel de l'Epine", "Page": 279, "Pays": "France", "Commune": "Dullin", "Code postal": 73610, "Latitude": 5.751502, "Longitude": 45.548779, "Mode transport": "routier" }, "geometry": { "type": "Point", "coordinates": [ 45.548779, 5.751502 ] } },
{ "type": "Feature", "properties": { "N° revue TES": "114", "Titre": "Aménagement définitif du puits de Sangatte", "Page": 360, "Pays": "France", "Commune": "Calais", "Code postal": 62100, "Latitude": 1.869497, "Longitude": 50.947795, "Mode transport": "ferroviaire" }, "geometry": { "type": "Point", "coordinates": [ 50.947795, 1.869497 ] } },
{ "type": "Feature", "properties": { "N° revue TES": "115", "Titre": "Le Tunnel du Siaix : exemple d'analyse géotectonique appliquée aux Travaux Souterrains", "Page": 21, "Pays": "France", "Commune": "Aime-la-Plagne", "Code postal": 73210, "Latitude": 6.62575, "Longitude": 45.538585, "Mode transport": "routier" }, "geometry": { "type": "Point", "coordinates": [ 45.538585, 6.62575 ] } },
{ "type": "Feature", "properties": { "N° revue TES": "115", "Titre": "La Galaure : le bout du tunnel", "Page": 52, "Pays": "France", "Commune": "Châteauneuf-de-Galaure", "Code postal": 26330, "Latitude": 4.963341, "Longitude": 45.230995, "Mode transport": "routier" }, "geometry": { "type": "Point", "coordinates": [ 45.230995, 4.963341 ] } },
{ "type": "Feature", "properties": { "N° revue TES": "115", "Titre": "Difficultés rencontrtées lors de le réalisation de la galerie d'arrière-gare La Timone", "Page": 13, "Pays": "France", "Commune": "Marseille", "Code postal": 13000, "Latitude": 5.353055, "Longitude": 43.281951, "Mode transport": "ferroviaire" }, "geometry": { "type": "Point", "coordinates": [ 43.281951, 5.353055 ] } },
{ "type": "Feature", "properties": { "N° revue TES": "115", "Titre": "Dimensionnement aéraulique des refuges incendie du tunnel de Puymorens", "Page": 40, "Pays": "France", "Commune": "Porté-Puymorens", "Code postal": 66760, "Latitude": 1.833482, "Longitude": 42.548561, "Mode transport": "routier" }, "geometry": { "type": "Point", "coordinates": [ 42.548561, 1.833482 ] } },
{ "type": "Feature", "properties": { "N° revue TES": "116", "Titre": "La construction du tunnel du tramway de Strasbourg", "Page": 89, "Pays": "France", "Commune": "Strasbourg", "Code postal": 67000, "Latitude": 7.742513, "Longitude": 48.581905, "Mode transport": "métro\/tram" }, "geometry": { "type": "Point", "coordinates": [ 48.581905, 7.742513 ] } },
{ "type": "Feature", "properties": { "N° revue TES": "117", "Titre": "Eole, la ligne qui touche Paris au coeur ... en douceur", "Page": 129, "Pays": "France", "Commune": "Courbevoie", "Code postal": 92400, "Latitude": 2.267482, "Longitude": 48.902257, "Mode transport": "ferroviaire" }, "geometry": { "type": "Point", "coordinates": [ 48.902257, 2.267482 ] } },
{ "type": "Feature", "properties": { "N° revue TES": "117", "Titre": "Le 7ème lot de l'émissaire de Sèvres-Achères - Branche de Nanterre", "Page": 126, "Pays": "France", "Commune": "Nanterre", "Code postal": 92000, "Latitude": 2.202314, "Longitude": 48.898095, "Mode transport": "énergie\/réseau" }, "geometry": { "type": "Point", "coordinates": [ 48.898095, 2.202314 ] } },
{ "type": "Feature", "properties": { "N° revue TES": "118", "Titre": "Réparation du système de drainage du tunnel Craeybeckx à Anvers", "Page": 217, "Pays": "Belgique", "Commune": "Anvers", "Code postal": 2000, "Latitude": 51.2211097, "Longitude": 4.3997081, "Mode transport": "routier" }, "geometry": { "type": "Point", "coordinates": [ 4.3997081, 51.2211097 ] } },
{ "type": "Feature", "properties": { "N° revue TES": "118", "Titre": "L'étanchéité du béton par cristallisation interne. Le cas du métro d'Anvers", "Page": 222, "Pays": "Belgique", "Commune": "Anvers", "Code postal": 2000, "Latitude": 51.2211097, "Longitude": 4.3997081, "Mode transport": "routier" }, "geometry": { "type": "Point", "coordinates": [ 4.3997081, 51.2211097 ] } },
{ "type": "Feature", "properties": { "N° revue TES": "118", "Titre": "Problèmes de corrosion des armatures du tunnel Roodebeek à Bruxelles. Auscultation par la méthode de mapping potentio-métrique", "Page": 191, "Pays": "Belgique", "Commune": "Bruxelles", "Code postal": 1000, "Latitude": 50.8465573, "Longitude": 4.351697, "Mode transport": "routier" }, "geometry": { "type": "Point", "coordinates": [ 4.351697, 50.8465573 ] } },
{ "type": "Feature", "properties": { "N° revue TES": "120", "Titre": "Travaux de rénovation du tunnel du Mont Blanc", "Page": 301, "Pays": "France", "Commune": "Chamonix-Mont-Blanc", "Code postal": 74400, "Latitude": 6.893163, "Longitude": 45.948385, "Mode transport": "routier" }, "geometry": { "type": "Point", "coordinates": [ 45.948385, 6.893163 ] } },
{ "type": "Feature", "properties": { "N° revue TES": "120", "Titre": "Les conduits souterrains de Grand (Vosges)", "Page": 311, "Pays": "France", "Commune": "Bréchainville", "Code postal": 88350, "Latitude": 5.486081, "Longitude": 48.366443, "Mode transport": "énergie\/réseau" }, "geometry": { "type": "Point", "coordinates": [ 48.366443, 5.486081 ] } },
{ "type": "Feature", "properties": { "N° revue TES": "120", "Titre": "Le Tunnel de Lièpvre", "Page": 294, "Pays": "France", "Commune": "Lièpvre", "Code postal": 68660, "Latitude": 7.282953, "Longitude": 48.273051, "Mode transport": "routier" }, "geometry": { "type": "Point", "coordinates": [ 48.273051, 7.282953 ] } },
{ "type": "Feature", "properties": { "N° revue TES": "121", "Titre": "Pose de voies du tunnel sous la Manche", "Page": 9, "Pays": "France", "Commune": "Calais", "Code postal": 62100, "Latitude": 1.869497, "Longitude": 50.947795, "Mode transport": "ferroviaire" }, "geometry": { "type": "Point", "coordinates": [ 50.947795, 1.869497 ] } },
{ "type": "Feature", "properties": { "N° revue TES": "123", "Titre": "Métro de Lyon : prolongement de la ligne D", "Page": 171, "Pays": "France", "Commune": "Lyon", "Code postal": 69000, "Latitude": 4.826023, "Longitude": 45.748952, "Mode transport": "métro\/tram" }, "geometry": { "type": "Point", "coordinates": [ 45.748952, 4.826023 ] } },
{ "type": "Feature", "properties": { "N° revue TES": "124", "Titre": "Dispositifs d'assainissement en tunnel : l'exemple du tunnel d'En-Raxat", "Page": 204, "Pays": "France", "Commune": "Collioure", "Code postal": 66190, "Latitude": 3.075905, "Longitude": 42.518575, "Mode transport": "routier" }, "geometry": { "type": "Point", "coordinates": [ 42.518575, 3.075905 ] } },
{ "type": "Feature", "properties": { "N° revue TES": "124", "Titre": "Utilisation de ramorçage séquantiel pour les travaux de doublement du tunnel de Chamoise", "Page": 195, "Pays": "France", "Commune": "Nantua", "Code postal": 1130, "Latitude": 5.5995, "Longitude": 46.154802, "Mode transport": "routier" }, "geometry": { "type": "Point", "coordinates": [ 46.154802, 5.5995 ] } },
{ "type": "Feature", "properties": { "N° revue TES": "125", "Titre": "Réglage de la ventilation du tunnel sous la Manche", "Page": 288, "Pays": "France", "Commune": "Calais", "Code postal": 62100, "Latitude": 1.869497, "Longitude": 50.947795, "Mode transport": "ferroviaire" }, "geometry": { "type": "Point", "coordinates": [ 50.947795, 1.869497 ] } },
{ "type": "Feature", "properties": { "N° revue TES": "125", "Titre": "Boulevard périphérique Nord de Lyon - le tunnel de Caluire", "Page": 283, "Pays": "France", "Commune": "Caluire-et-Cuire", "Code postal": 69300, "Latitude": 4.848745, "Longitude": 45.797623, "Mode transport": "routier" }, "geometry": { "type": "Point", "coordinates": [ 45.797623, 4.848745 ] } },
{ "type": "Feature", "properties": { "N° revue TES": "126", "Titre": "Un tunnel routier sous Aubenas (Ardèche)", "Page": 363, "Pays": "France", "Commune": "Aubenas", "Code postal": 10431, "Latitude": 4.389612, "Longitude": 44.620053, "Mode transport": "routier" }, "geometry": { "type": "Point", "coordinates": [ 44.620053, 4.389612 ] } },
{ "type": "Feature", "properties": { "N° revue TES": "126", "Titre": "Chantier de la gare souterraine ferroviaire de Monaco", "Page": 359, "Pays": "France", "Commune": "Monaco", "Code postal": 98000, "Latitude": 43.7323492, "Longitude": 7.4276832, "Mode transport": "ferroviaire" }, "geometry": { "type": "Point", "coordinates": [ 7.4276832, 43.7323492 ] } },
{ "type": "Feature", "properties": { "N° revue TES": "126", "Titre": "Les tunnels du métrobus de Rouen", "Page": 341, "Pays": "France", "Commune": "Rouen", "Code postal": 76000, "Latitude": 1.084421, "Longitude": 49.44138, "Mode transport": "métro\/tram" }, "geometry": { "type": "Point", "coordinates": [ 49.44138, 1.084421 ] } },
{ "type": "Feature", "properties": { "N° revue TES": "126", "Titre": "Le tunnel Piet Hein à Amsterdam", "Page": 329, "Pays": "Pays-Bas", "Commune": "Amsterdam", "Code postal": 1098, "Latitude": 52.3730796, "Longitude": 4.8924534, "Mode transport": "routier" }, "geometry": { "type": "Point", "coordinates": [ 4.8924534, 52.3730796 ] } },
{ "type": "Feature", "properties": { "N° revue TES": "127", "Titre": "Le tunnel de Limeil-Brévannes", "Page": 8, "Pays": "France", "Commune": "Limeil-Brévannes", "Code postal": 94450, "Latitude": 2.492425, "Longitude": 48.747906, "Mode transport": "routier" }, "geometry": { "type": "Point", "coordinates": [ 48.747906, 2.492425 ] } },
{ "type": "Feature", "properties": { "N° revue TES": "127", "Titre": "Le tunnel de Monaco", "Page": 26, "Pays": "France", "Commune": "Monaco", "Code postal": 98000, "Latitude": 43.7323492, "Longitude": 7.4276832, "Mode transport": "routier" }, "geometry": { "type": "Point", "coordinates": [ 7.4276832, 43.7323492 ] } },
{ "type": "Feature", "properties": { "N° revue TES": "127", "Titre": "Essais d'incendie au tunnel de Puymorens", "Page": 45, "Pays": "France", "Commune": "Porté-Puymorens", "Code postal": 66760, "Latitude": 1.833482, "Longitude": 42.548561, "Mode transport": "routier" }, "geometry": { "type": "Point", "coordinates": [ 42.548561, 1.833482 ] } },
{ "type": "Feature", "properties": { "N° revue TES": "128", "Titre": "Eole : \"La future ligne E du R.E.R qui touche Paris au cœur\"", "Page": 75, "Pays": "France", "Commune": "Courbevoie", "Code postal": 92400, "Latitude": 2.267482, "Longitude": 48.902257, "Mode transport": "ferroviaire" }, "geometry": { "type": "Point", "coordinates": [ 48.902257, 2.267482 ] } },
{ "type": "Feature", "properties": { "N° revue TES": "128", "Titre": "La construction du tunnel ferroviaire de la liaison Passante ferroviario à Milan", "Page": 130, "Pays": "France", "Commune": "Lille", "Code postal": 59000, "Latitude": 3.045449, "Longitude": 50.630993, "Mode transport": "ferroviaire" }, "geometry": { "type": "Point", "coordinates": [ 50.630993, 3.045449 ] } },
{ "type": "Feature", "properties": { "N° revue TES": "128", "Titre": "Pression de terre à Lille du Lot 1 au Lot 3", "Page": 113, "Pays": "France", "Commune": "Lille", "Code postal": 59000, "Latitude": 3.045449, "Longitude": 50.630993, "Mode transport": "métro\/tram" }, "geometry": { "type": "Point", "coordinates": [ 50.630993, 3.045449 ] } },
{ "type": "Feature", "properties": { "N° revue TES": "129", "Titre": "Autoroute A43 MAURIENNE : Les tunnels d'Aiguebelle et des Hurtières", "Page": 167, "Pays": "France", "Commune": "Aiguebelle", "Code postal": 73220, "Latitude": 6.29378, "Longitude": 45.510008, "Mode transport": "routier" }, "geometry": { "type": "Point", "coordinates": [ 45.510008, 6.29378 ] } },
{ "type": "Feature", "properties": { "N° revue TES": "129", "Titre": "Métro de Lyon - Prolongement de la ligne D : fin des travaux de creusement", "Page": 206, "Pays": "France", "Commune": "Lyon", "Code postal": 69000, "Latitude": 4.826023, "Longitude": 45.748952, "Mode transport": "métro\/tram" }, "geometry": { "type": "Point", "coordinates": [ 45.748952, 4.826023 ] } },
{ "type": "Feature", "properties": { "N° revue TES": "129", "Titre": "Tunnel de Montjeyzieu : IR-MONTABERT et IR-SPLIT-SET", "Page": 205, "Pays": "France", "Commune": "Montjézieu", "Code postal": 48500, "Latitude": 3.210062, "Longitude": 44.476577, "Mode transport": "routier" }, "geometry": { "type": "Point", "coordinates": [ 44.476577, 3.210062 ] } },
{ "type": "Feature", "properties": { "N° revue TES": "129", "Titre": "Tunnel de St Germain-en-Laye", "Page": 155, "Pays": "France", "Commune": "Saint-Germain-en-Laye", "Code postal": 78100, "Latitude": 2.112812, "Longitude": 48.924335, "Mode transport": "routier" }, "geometry": { "type": "Point", "coordinates": [ 48.924335, 2.112812 ] } },
{ "type": "Feature", "properties": { "N° revue TES": "129", "Titre": "Traversée souterraine de Toulon.", "Page": 179, "Pays": "France", "Commune": "Toulon", "Code postal": 83200, "Latitude": 5.899868, "Longitude": 43.146239, "Mode transport": "routier" }, "geometry": { "type": "Point", "coordinates": [ 43.146239, 5.899868 ] } },
{ "type": "Feature", "properties": { "N° revue TES": "130", "Titre": "Tunnel du Cap Estel", "Page": 222, "Pays": "France", "Commune": "èze", "Code postal": 6360, "Latitude": 43.729283, "Longitude": 7.373249, "Mode transport": "routier" }, "geometry": { "type": "Point", "coordinates": [ 7.373249, 43.729283 ] } },
{ "type": "Feature", "properties": { "N° revue TES": "130", "Titre": "Tunnel du Somport : un ouvrage d'envergure internationale reportage réalisé par E.M.C.C", "Page": 215, "Pays": "France", "Commune": "Les Forges d'Abel", "Code postal": 64490, "Latitude": -0.561589, "Longitude": 42.821024, "Mode transport": "routier" }, "geometry": { "type": "Point", "coordinates": [ 42.821024, -0.561589 ] } },
{ "type": "Feature", "properties": { "N° revue TES": "130", "Titre": "Méthodologie de prévision du risque de décompression violente - Cas du tunnel de base du Lëtschberg (Suisse)", "Page": 262, "Pays": "Suisse", "Commune": "Ferden", "Code postal": 3916, "Latitude": 46.3942848, "Longitude": 7.7591799, "Mode transport": "ferroviaire" }, "geometry": { "type": "Point", "coordinates": [ 7.7591799, 46.3942848 ] } },
{ "type": "Feature", "properties": { "N° revue TES": "131", "Titre": "Le prolongement du collecteur Montmorency-Soisy", "Page": 333, "Pays": "France", "Commune": "Soisy-sous-Montmorency", "Code postal": 95230, "Latitude": 2.301698, "Longitude": 48.988538, "Mode transport": "énergie\/réseau" }, "geometry": { "type": "Point", "coordinates": [ 48.988538, 2.301698 ] } },
{ "type": "Feature", "properties": { "N° revue TES": "131", "Titre": "Lesotho Highlands Water Project - Les tunnels de transfert et de livraison", "Page": 311, "Pays": "Lesotho", "Commune": "Maseru", "Code postal": null, "Latitude": -29.310054, "Longitude": 27.478222, "Mode transport": "énergie\/réseau" }, "geometry": { "type": "Point", "coordinates": [ 27.478222, -29.310054 ] } },
{ "type": "Feature", "properties": { "N° revue TES": "131", "Titre": "Les tunnels hydrauliques des hauts plateaux du Lesotho", "Page": 321, "Pays": "Lesotho", "Commune": "Maseru", "Code postal": null, "Latitude": -29.310054, "Longitude": 27.478222, "Mode transport": "énergie\/réseau" }, "geometry": { "type": "Point", "coordinates": [ 27.478222, -29.310054 ] } },
{ "type": "Feature", "properties": { "N° revue TES": "132", "Titre": "EoLE : le radar de Forage pour la reconnaissance à l'avancement du tunnelier", "Page": 341, "Pays": "France", "Commune": "Courbevoie", "Code postal": 92400, "Latitude": 2.267482, "Longitude": 48.902257, "Mode transport": "ferroviaire" }, "geometry": { "type": "Point", "coordinates": [ 48.902257, 2.267482 ] } },
{ "type": "Feature", "properties": { "N° revue TES": "132", "Titre": "Pression de terre à LILLE, du lot 1 au lot 3", "Page": 367, "Pays": "France", "Commune": "Lille", "Code postal": 59000, "Latitude": 3.045449, "Longitude": 50.630993, "Mode transport": "métro\/tram" }, "geometry": { "type": "Point", "coordinates": [ 50.630993, 3.045449 ] } },
{ "type": "Feature", "properties": { "N° revue TES": "132", "Titre": "Traversée souterraine de Toulon - A la rencontre du Tunnel Nord", "Page": 351, "Pays": "France", "Commune": "Toulon", "Code postal": 83200, "Latitude": 5.899868, "Longitude": 43.146239, "Mode transport": "routier" }, "geometry": { "type": "Point", "coordinates": [ 43.146239, 5.899868 ] } },
{ "type": "Feature", "properties": { "N° revue TES": "133", "Titre": "EoLE : une nouvelle dimension de chantier", "Page": 11, "Pays": "France", "Commune": "Courbevoie", "Code postal": 92400, "Latitude": 2.267482, "Longitude": 48.902257, "Mode transport": "ferroviaire" }, "geometry": { "type": "Point", "coordinates": [ 48.902257, 2.267482 ] } },
{ "type": "Feature", "properties": { "N° revue TES": "133", "Titre": "Etanchement du tunnel de Fort l'Ecluse", "Page": 38, "Pays": "France", "Commune": "Léaz", "Code postal": 1200, "Latitude": 3.893997, "Longitude": 43.632844, "Mode transport": "routier" }, "geometry": { "type": "Point", "coordinates": [ 43.632844, 3.893997 ] } },
{ "type": "Feature", "properties": { "N° revue TES": "133", "Titre": "Etanchement des tunnels d'Angles et de St Julien", "Page": 41, "Pays": "France", "Commune": "Saint-André-les-Alpes", "Code postal": 4173, "Latitude": 5.522946, "Longitude": 45.544882, "Mode transport": "routier" }, "geometry": { "type": "Point", "coordinates": [ 45.544882, 5.522946 ] } },
{ "type": "Feature", "properties": { "N° revue TES": "134", "Titre": "Le tunnel de Vaise-La Duchère : en avance sur le planning", "Page": 95, "Pays": "France", "Commune": "Caluire-et-Cuire", "Code postal": 69300, "Latitude": 4.848745, "Longitude": 45.797623, "Mode transport": "routier" }, "geometry": { "type": "Point", "coordinates": [ 45.797623, 4.848745 ] } },
{ "type": "Feature", "properties": { "N° revue TES": "134", "Titre": "Métro de Lyon - Ligne D : section Gorge de Loup\/Gare de Vaise", "Page": 77, "Pays": "France", "Commune": "Lyon", "Code postal": 69000, "Latitude": 4.826023, "Longitude": 45.748952, "Mode transport": "métro\/tram" }, "geometry": { "type": "Point", "coordinates": [ 45.748952, 4.826023 ] } },
{ "type": "Feature", "properties": { "N° revue TES": "134", "Titre": "Température et contraintes dans les massifs rocheux : cas du projet du tunnel «Maurienne-Ambin»", "Page": 85, "Pays": "France", "Commune": "Modane", "Code postal": 73500, "Latitude": 6.664194, "Longitude": 45.194019, "Mode transport": "ferroviaire" }, "geometry": { "type": "Point", "coordinates": [ 45.194019, 6.664194 ] } },
{ "type": "Feature", "properties": { "N° revue TES": "135", "Titre": "Projecteur de plan de tir : traceur cyclope sur le chantier de Vaise-La Duchère", "Page": 164, "Pays": "France", "Commune": "Caluire-et-Cuire", "Code postal": 69300, "Latitude": 4.848745, "Longitude": 45.797623, "Mode transport": "routier" }, "geometry": { "type": "Point", "coordinates": [ 45.797623, 4.848745 ] } },
{ "type": "Feature", "properties": { "N° revue TES": "136", "Titre": "Puits de ventilation des tunnels du Mont Terri et du Mont Russelin", "Page": 213, "Pays": "Suisse", "Commune": "Cornol", "Code postal": 2952, "Latitude": 47.4073679, "Longitude": 7.1612963, "Mode transport": "routier" }, "geometry": { "type": "Point", "coordinates": [ 7.1612963, 47.4073679 ] } },
{ "type": "Feature", "properties": { "N° revue TES": "136", "Titre": "Aménagement de Cleuson Dixence : puits blindé - voussoirs, mise au point d'un ciment à la fumée de silice", "Page": 197, "Pays": "Suisse", "Commune": "Nendaz", "Code postal": null, "Latitude": 46.1867083, "Longitude": 7.3051008, "Mode transport": "énergie\/réseau" }, "geometry": { "type": "Point", "coordinates": [ 7.3051008, 46.1867083 ] } },
{ "type": "Feature", "properties": { "N° revue TES": "137", "Titre": "Le prolongement de la Ligne B du Métro de Lyon", "Page": 297, "Pays": "France", "Commune": "Lyon", "Code postal": 69000, "Latitude": 4.826023, "Longitude": 45.748952, "Mode transport": "métro\/tram" }, "geometry": { "type": "Point", "coordinates": [ 45.748952, 4.826023 ] } },
{ "type": "Feature", "properties": { "N° revue TES": "137", "Titre": "Autoroute A43 Maurienne : le tunnel d'Orelle", "Page": 269, "Pays": "France", "Commune": "Orelle", "Code postal": 73140, "Latitude": 6.536645, "Longitude": 45.20987, "Mode transport": "routier" }, "geometry": { "type": "Point", "coordinates": [ 45.20987, 6.536645 ] } },
{ "type": "Feature", "properties": { "N° revue TES": "137", "Titre": "Tunnel sous air comprimé d'Orly Val", "Page": 255, "Pays": "France", "Commune": "Roissy-en-France", "Code postal": 95700, "Latitude": 2.513436, "Longitude": 48.997813, "Mode transport": "métro\/tram" }, "geometry": { "type": "Point", "coordinates": [ 48.997813, 2.513436 ] } },
{ "type": "Feature", "properties": { "N° revue TES": "137", "Titre": "Métro d'Athènes, lignes 2 et 3", "Page": 261, "Pays": "Grèce", "Commune": "Athènes", "Code postal": 10431, "Latitude": 37.9755648, "Longitude": 23.7348324, "Mode transport": "métro\/tram" }, "geometry": { "type": "Point", "coordinates": [ 23.7348324, 37.9755648 ] } },
{ "type": "Feature", "properties": { "N° revue TES": "138", "Titre": "Parachèvement des stations de prémétro - Tronçon de prémétro Astrid-Sport à Anvers", "Page": 349, "Pays": "Belgique", "Commune": "Anvers", "Code postal": 2000, "Latitude": 51.2211097, "Longitude": 4.3997081, "Mode transport": "métro\/tram" }, "geometry": { "type": "Point", "coordinates": [ 4.3997081, 51.2211097 ] } },
{ "type": "Feature", "properties": { "N° revue TES": "138", "Titre": "Caractéristiques Générales de la liaison Lyon-Turin", "Page": 314, "Pays": "France", "Commune": "Modane", "Code postal": 73500, "Latitude": 6.664194, "Longitude": 45.194019, "Mode transport": "ferroviaire" }, "geometry": { "type": "Point", "coordinates": [ 45.194019, 6.664194 ] } },
{ "type": "Feature", "properties": { "N° revue TES": "138", "Titre": "Le Tunnel de base du projel Lyon-Turin", "Page": 316, "Pays": "France", "Commune": "Modane", "Code postal": 73500, "Latitude": 6.664194, "Longitude": 45.194019, "Mode transport": "ferroviaire" }, "geometry": { "type": "Point", "coordinates": [ 45.194019, 6.664194 ] } },
{ "type": "Feature", "properties": { "N° revue TES": "138", "Titre": "Galerie d'amenée de l'aménagement Cleuson-Dixence - Traitement des accidents géologiques", "Page": 329, "Pays": "Suisse", "Commune": "Nendaz", "Code postal": null, "Latitude": 46.1867083, "Longitude": 7.3051008, "Mode transport": "énergie\/réseau" }, "geometry": { "type": "Point", "coordinates": [ 7.3051008, 46.1867083 ] } },
{ "type": "Feature", "properties": { "N° revue TES": "140", "Titre": "Pilotage d'un tunnelier à l'aide d'un gyrocompas -  L'expérience du chantier Clichy la Briche lot 4", "Page": 117, "Pays": "France", "Commune": "Clichy-la-Briche", "Code postal": 92110, "Latitude": 2.303708, "Longitude": 48.897113, "Mode transport": "énergie\/réseau" }, "geometry": { "type": "Point", "coordinates": [ 48.897113, 2.303708 ] } },
{ "type": "Feature", "properties": { "N° revue TES": "140", "Titre": "Ventilation des tunnels de l'autoroute A14 sous la Défense - Innovation autour d'un système classique de ventilation", "Page": 129, "Pays": "France", "Commune": "Paris", "Code postal": 75000, "Latitude": 2.347, "Longitude": 48.859, "Mode transport": "routier" }, "geometry": { "type": "Point", "coordinates": [ 48.859, 2.347 ] } },
{ "type": "Feature", "properties": { "N° revue TES": "141", "Titre": "Tunnel Trans\/Manche, retour d'expérience : Géomécanique de la craie", "Page": 183, "Pays": "France", "Commune": "Calais", "Code postal": 62100, "Latitude": 1.869497, "Longitude": 50.947795, "Mode transport": "ferroviaire" }, "geometry": { "type": "Point", "coordinates": [ 50.947795, 1.869497 ] } },
{ "type": "Feature", "properties": { "N° revue TES": "141", "Titre": "Collecteur de liaison Clichy-La Briche - Les lois 3 et 4 du collecteur", "Page": 153, "Pays": "France", "Commune": "Clichy-la-Briche", "Code postal": 92110, "Latitude": 2.303708, "Longitude": 48.897113, "Mode transport": "énergie\/réseau" }, "geometry": { "type": "Point", "coordinates": [ 48.897113, 2.303708 ] } },
{ "type": "Feature", "properties": { "N° revue TES": "141", "Titre": "Tunnel de l'lnfernet - Fin des travaux de réalésage en avril 97", "Page": 171, "Pays": "France", "Commune": "Huez", "Code postal": 38750, "Latitude": 6.066699, "Longitude": 45.08667, "Mode transport": "routier" }, "geometry": { "type": "Point", "coordinates": [ 45.08667, 6.066699 ] } },
{ "type": "Feature", "properties": { "N° revue TES": "141", "Titre": "La voûte active de la Station Pyramides de la ligne Météor", "Page": 145, "Pays": "France", "Commune": "Paris", "Code postal": 75000, "Latitude": 2.347, "Longitude": 48.859, "Mode transport": "métro\/tram" }, "geometry": { "type": "Point", "coordinates": [ 48.859, 2.347 ] } },
{ "type": "Feature", "properties": { "N° revue TES": "141", "Titre": "Les tunnels d'Uriol et du Petit Brion sur l'Autoroute A51", "Page": 173, "Pays": "France", "Commune": "Varces-Allières-et-Risset", "Code postal": 38760, "Latitude": 5.677254, "Longitude": 45.095478, "Mode transport": "routier" }, "geometry": { "type": "Point", "coordinates": [ 45.095478, 5.677254 ] } },
{ "type": "Feature", "properties": { "N° revue TES": "141", "Titre": "Les tunnels d'Uriol et du Petit Brion : Evolution des plans de tir", "Page": 178, "Pays": "France", "Commune": "Varces-Allières-et-Risset", "Code postal": 38760, "Latitude": 5.677254, "Longitude": 45.095478, "Mode transport": "routier" }, "geometry": { "type": "Point", "coordinates": [ 45.095478, 5.677254 ] } },
{ "type": "Feature", "properties": { "N° revue TES": "143", "Titre": "Traitement des difficultés rencontrées lors du creusement du tunnel de la section B de la ligne 2 du métro de Lille", "Page": 261, "Pays": "France", "Commune": "Lille", "Code postal": 59000, "Latitude": 3.045449, "Longitude": 50.630993, "Mode transport": "métro\/tram" }, "geometry": { "type": "Point", "coordinates": [ 50.630993, 3.045449 ] } },
{ "type": "Feature", "properties": { "N° revue TES": "143", "Titre": "Le mini métro de Copenhague", "Page": 267, "Pays": "Pays-Bas", "Commune": "Amsterdam", "Code postal": 1098, "Latitude": 52.3730796, "Longitude": 4.8924534, "Mode transport": "métro\/tram" }, "geometry": { "type": "Point", "coordinates": [ 4.8924534, 52.3730796 ] } },
{ "type": "Feature", "properties": { "N° revue TES": "144", "Titre": "Un tunnelier géant creusé sous l'Elbe", "Page": 368, "Pays": "Allemagne", "Commune": "Hambourg", "Code postal": null, "Latitude": 53.550341, "Longitude": 10.000654, "Mode transport": "routier" }, "geometry": { "type": "Point", "coordinates": [ 10.000654, 53.550341 ] } },
{ "type": "Feature", "properties": { "N° revue TES": "144", "Titre": "Gares souterraines d'Eole : Jet-grouting et rabattement", "Page": 329, "Pays": "France", "Commune": "Courbevoie", "Code postal": 92400, "Latitude": 2.267482, "Longitude": 48.902257, "Mode transport": "ferroviaire" }, "geometry": { "type": "Point", "coordinates": [ 48.902257, 2.267482 ] } },
{ "type": "Feature", "properties": { "N° revue TES": "144", "Titre": "Tunnel du Mont-Sion : le point sur les travaux", "Page": 361, "Pays": "France", "Commune": "Saint-Julien-en-Genevois", "Code postal": 74160, "Latitude": 6.081754, "Longitude": 46.138878, "Mode transport": "routier" }, "geometry": { "type": "Point", "coordinates": [ 46.138878, 6.081754 ] } },
{ "type": "Feature", "properties": { "N° revue TES": "144", "Titre": "Galeries industrielles et contournements routiers à Lugano et Locarno", "Page": 353, "Pays": "Italie", "Commune": "Lugano", "Code postal": null, "Latitude": 46.0200392, "Longitude": 9.2369985, "Mode transport": "routier" }, "geometry": { "type": "Point", "coordinates": [ 9.2369985, 46.0200392 ] } },
{ "type": "Feature", "properties": { "N° revue TES": "145", "Titre": "Gares souterraines d'Eole - Jet grouting et rabattement - Gare Condorcet : Systématisation et limites d'utilisation de ces méthodes dans les grands projets souterrains en site urbain", "Page": 33, "Pays": "France", "Commune": "Courbevoie", "Code postal": 92400, "Latitude": 2.267482, "Longitude": 48.902257, "Mode transport": "ferroviaire" }, "geometry": { "type": "Point", "coordinates": [ 48.902257, 2.267482 ] } },
{ "type": "Feature", "properties": { "N° revue TES": "145", "Titre": "Fluides conditionneurs pour la pression de terre - Réalisation de la ligne D du métro de Lisbonne", "Page": 21, "Pays": "Portugal", "Commune": "Lisbonne", "Code postal": null, "Latitude": 38.7077507, "Longitude": -9.1365919, "Mode transport": "métro\/tram" }, "geometry": { "type": "Point", "coordinates": [ -9.1365919, 38.7077507 ] } },
{ "type": "Feature", "properties": { "N° revue TES": "146", "Titre": "Reconnaissances de la zone de Piora en vue de la réalisation du tunnel de base du Saint-Gothard", "Page": 139, "Pays": "France", "Commune": "Andermatt", "Code postal": 6490, "Latitude": 46.6340499, "Longitude": 8.5948148, "Mode transport": "ferroviaire" }, "geometry": { "type": "Point", "coordinates": [ 8.5948148, 46.6340499 ] } },
{ "type": "Feature", "properties": { "N° revue TES": "147", "Titre": "Les travaux exceptionnels de Jet grouting du métro du Caire", "Page": 259, "Pays": "Egypte", "Commune": "Le Caire", "Code postal": null, "Latitude": 30.0443879, "Longitude": 31.2357257, "Mode transport": "métro\/tram" }, "geometry": { "type": "Point", "coordinates": [ 31.2357257, 30.0443879 ] } },
{ "type": "Feature", "properties": { "N° revue TES": "147", "Titre": "TGV Méditerranée - le tunnel de Lambesc", "Page": 223, "Pays": "France", "Commune": "Lambesc", "Code postal": 13410, "Latitude": 5.257774, "Longitude": 43.650343, "Mode transport": "ferroviaire" }, "geometry": { "type": "Point", "coordinates": [ 43.650343, 5.257774 ] } },
{ "type": "Feature", "properties": { "N° revue TES": "147", "Titre": "Tunnel du Somport : Présentation de l'ouvrage - réalisation des travaux de génie civil de percement de la section française", "Page": 189, "Pays": "France", "Commune": "Les Forges d'Abel", "Code postal": 64490, "Latitude": -0.561589, "Longitude": 42.821024, "Mode transport": "routier" }, "geometry": { "type": "Point", "coordinates": [ 42.821024, -0.561589 ] } },
{ "type": "Feature", "properties": { "N° revue TES": "147", "Titre": "Bouclage de l'A86 à l'Ouest : Tunnel Est - Critères de choix du tunnelier", "Page": 275, "Pays": "France", "Commune": "Marnes-la-Coquette", "Code postal": 92430, "Latitude": 2.170073, "Longitude": 48.835245, "Mode transport": "routier" }, "geometry": { "type": "Point", "coordinates": [ 48.835245, 2.170073 ] } },
{ "type": "Feature", "properties": { "N° revue TES": "147", "Titre": "Creusement au tunnelier de la galerie de Javanon", "Page": 207, "Pays": "France", "Commune": "Sisteron", "Code postal": 4200, "Latitude": 44.1963467, "Longitude": 5.9443791, "Mode transport": "énergie\/réseau" }, "geometry": { "type": "Point", "coordinates": [ 5.9443791, 44.1963467 ] } },
{ "type": "Feature", "properties": { "N° revue TES": "148", "Titre": "Le métro d'Alger : présentation du projet (1ère partie)", "Page": 321, "Pays": "Algérie", "Commune": "Alger", "Code postal": null, "Latitude": 36.7729333, "Longitude": 3.0588445, "Mode transport": "métro\/tram" }, "geometry": { "type": "Point", "coordinates": [ 3.0588445, 36.7729333 ] } },
{ "type": "Feature", "properties": { "N° revue TES": "148", "Titre": "Performances du tunnelier pour le creusement du Tunnel du Trasvase Guadiaro-Majaceite (Province de Cadix)", "Page": 345, "Pays": "Espagne", "Commune": "Cadix", "Code postal": 11001, "Latitude": 36.5297438, "Longitude": -6.2928976, "Mode transport": "routier" }, "geometry": { "type": "Point", "coordinates": [ -6.2928976, 36.5297438 ] } },
{ "type": "Feature", "properties": { "N° revue TES": "148", "Titre": "Tunnel de l'Infernet : un réalésage sous circulation", "Page": 299, "Pays": "France", "Commune": "Huez", "Code postal": 38750, "Latitude": 6.066699, "Longitude": 45.08667, "Mode transport": "routier" }, "geometry": { "type": "Point", "coordinates": [ 45.08667, 6.066699 ] } },
{ "type": "Feature", "properties": { "N° revue TES": "148", "Titre": "TGV Méditerranée - Lot 3K\/3L : Tunnel des Pennes-Mirabeau et tranchée couverte de Bellepeire", "Page": 313, "Pays": "France", "Commune": "Les Pennes-Mirabeau", "Code postal": 13170, "Latitude": 5.326859, "Longitude": 43.39829, "Mode transport": "ferroviaire" }, "geometry": { "type": "Point", "coordinates": [ 43.39829, 5.326859 ] } },
{ "type": "Feature", "properties": { "N° revue TES": "149", "Titre": "Résolution d'incidents de creusement de tunnels en conditions géologiques difficiles - Tunnels du Storebaelt - Incendie d'un tunnelier", "Page": 379, "Pays": "Danemark", "Commune": "Stagelse", "Code postal": null, "Latitude": 55.40532, "Longitude": 11.354264, "Mode transport": "ferroviaire" }, "geometry": { "type": "Point", "coordinates": [ 11.354264, 55.40532 ] } },
{ "type": "Feature", "properties": { "N° revue TES": "149", "Titre": "Le tunnel Haret Hreik-Sands à Beyrouth - Méthodes d'excavation et résultats obtenus par le traitement des terrains à l'aide d'injections chimiques", "Page": 428, "Pays": "Liban", "Commune": "Beyrouth", "Code postal": null, "Latitude": 33.88922645, "Longitude": 35.502558528952321, "Mode transport": "routier" }, "geometry": { "type": "Point", "coordinates": [ 35.502558528952321, 33.88922645 ] } },
{ "type": "Feature", "properties": { "N° revue TES": "150", "Titre": "RN193 - Tunnel sous le vieux port de Bastia - Réparation de l'étanchéité du joint Nord", "Page": 482, "Pays": "France", "Commune": "Bastia", "Code postal": 20200, "Latitude": 9.435179, "Longitude": 42.687608, "Mode transport": "routier" }, "geometry": { "type": "Point", "coordinates": [ 42.687608, 9.435179 ] } },
{ "type": "Feature", "properties": { "N° revue TES": "150", "Titre": "Imperméabilisation du front de taille par injection de boues bentonitiques préalablement à des interventions hyperbares sur le tube Sud du Tunnel de Caluire du BPNL", "Page": 500, "Pays": "France", "Commune": "Caluire-et-Cuire", "Code postal": 69300, "Latitude": 4.848745, "Longitude": 45.797623, "Mode transport": "routier" }, "geometry": { "type": "Point", "coordinates": [ 45.797623, 4.848745 ] } },
{ "type": "Feature", "properties": { "N° revue TES": "152", "Titre": "Aménagement Cleuson-Dixence - Problèmes rencontrés lors du bétonnage du lot C de la galerie d'amenée", "Page": 83, "Pays": "Suisse", "Commune": "Nendaz", "Code postal": null, "Latitude": 46.1867083, "Longitude": 7.3051008, "Mode transport": "énergie\/réseau" }, "geometry": { "type": "Point", "coordinates": [ 7.3051008, 46.1867083 ] } },
{ "type": "Feature", "properties": { "N° revue TES": "153", "Titre": "La traversée des argiles du tunnel de Tartaiguille", "Page": 181, "Pays": "France", "Commune": "Roynac", "Code postal": 26450, "Latitude": 4.93249, "Longitude": 44.644014, "Mode transport": "ferroviaire" }, "geometry": { "type": "Point", "coordinates": [ 44.644014, 4.93249 ] } },
{ "type": "Feature", "properties": { "N° revue TES": "153", "Titre": "Aménagement Cleuson-Dixence - Revêtement de galerie à grande cadence : Lot B", "Page": 151, "Pays": "Suisse", "Commune": "Nendaz", "Code postal": null, "Latitude": 46.1867083, "Longitude": 7.3051008, "Mode transport": "énergie\/réseau" }, "geometry": { "type": "Point", "coordinates": [ 7.3051008, 46.1867083 ] } },
{ "type": "Feature", "properties": { "N° revue TES": "154", "Titre": "Collecteur Vina del Mar - Valparaiso (Chili) - Utilisation d'explosif sous air comprimé et à l'avant d'un tunnelier.", "Page": 219, "Pays": "Chili", "Commune": "Valparaiso", "Code postal": null, "Latitude": -32.5976089, "Longitude": -70.8529753, "Mode transport": "énergie\/réseau" }, "geometry": { "type": "Point", "coordinates": [ -70.8529753, -32.5976089 ] } },
{ "type": "Feature", "properties": { "N° revue TES": "154", "Titre": "Le tunnel de Saltu a u prete sur la RN 200 en Haute Corse", "Page": 227, "Pays": "France", "Commune": "Giuncaggio", "Code postal": 20251, "Latitude": 9.420283, "Longitude": 42.174161, "Mode transport": "routier" }, "geometry": { "type": "Point", "coordinates": [ 42.174161, 9.420283 ] } },
{ "type": "Feature", "properties": { "N° revue TES": "155", "Titre": "Le contexte géotechnique du tunnel de Pech Brunet - Etudes, modélisations et prévisions", "Page": 283, "Pays": "France", "Commune": "Montpezat-de-Quercy", "Code postal": 82270, "Latitude": 1.477928, "Longitude": 44.251544, "Mode transport": "routier" }, "geometry": { "type": "Point", "coordinates": [ 44.251544, 1.477928 ] } },
{ "type": "Feature", "properties": { "N° revue TES": "155", "Titre": "Réhabilitation du tunnel du Galibier", "Page": 295, "Pays": "France", "Commune": "Valloire", "Code postal": 73450, "Latitude": 6.419227, "Longitude": 45.136353, "Mode transport": "routier" }, "geometry": { "type": "Point", "coordinates": [ 45.136353, 6.419227 ] } },
{ "type": "Feature", "properties": { "N° revue TES": "156", "Titre": "Métro d'Alger - Station Tafourah Grande poste : une station particulère", "Page": 373, "Pays": "Algérie", "Commune": "Alger", "Code postal": null, "Latitude": 36.7729333, "Longitude": 3.0588445, "Mode transport": "métro\/tram" }, "geometry": { "type": "Point", "coordinates": [ 3.0588445, 36.7729333 ] } },
{ "type": "Feature", "properties": { "N° revue TES": "157", "Titre": "Le nouvel accélérateur du  CERN, LHCI - Les études et débuts des excavations du lot 1", "Page": 33, "Pays": "France", "Commune": "Cessy", "Code postal": 1170, "Latitude": 46.3181308, "Longitude": 6.0691189, "Mode transport": "énergie\/réseau" }, "geometry": { "type": "Point", "coordinates": [ 6.0691189, 46.3181308 ] } },
{ "type": "Feature", "properties": { "N° revue TES": "159", "Titre": "Galerie de Baillet - Recours au jet grouting pour le traitement de fontis géologiques", "Page": 133, "Pays": "France", "Commune": "Baillet-en-France", "Code postal": 95042, "Latitude": 2.314345, "Longitude": 49.063974, "Mode transport": "énergie\/réseau" }, "geometry": { "type": "Point", "coordinates": [ 49.063974, 2.314345 ] } },
{ "type": "Feature", "properties": { "N° revue TES": "159", "Titre": "TGV Méditerranée - Tunnel de Marseille", "Page": 145, "Pays": "France", "Commune": "Marseille", "Code postal": 13000, "Latitude": 5.353055, "Longitude": 43.281951, "Mode transport": "ferroviaire" }, "geometry": { "type": "Point", "coordinates": [ 43.281951, 5.353055 ] } },
{ "type": "Feature", "properties": { "N° revue TES": "160", "Titre": "Le tunnel de Cointe - Des équipements électromécaniques étudiés de près", "Page": 219, "Pays": "Belgique", "Commune": "Liège", "Code postal": null, "Latitude": 50.6450944, "Longitude": 5.5736112, "Mode transport": "routier" }, "geometry": { "type": "Point", "coordinates": [ 5.5736112, 50.6450944 ] } },
{ "type": "Feature", "properties": { "N° revue TES": "160", "Titre": "Essai d'un produit d'étanchéité dans le tunnel de Vauderens", "Page": 227, "Pays": "Suisse", "Commune": "Ursy", "Code postal": null, "Latitude": 46.6350125, "Longitude": 6.8359644, "Mode transport": "ferroviaire" }, "geometry": { "type": "Point", "coordinates": [ 6.8359644, 46.6350125 ] } },
{ "type": "Feature", "properties": { "N° revue TES": "161", "Titre": "Réalisation de la galerie d'amenée des Doukkala (Maroc)", "Page": 265, "Pays": "Maroc", "Commune": "Dar Ben Abdallah Ben Dehbi", "Code postal": null, "Latitude": 33.51, "Longitude": -7.73, "Mode transport": "énergie\/réseau" }, "geometry": { "type": "Point", "coordinates": [ -7.73, 33.51 ] } },
{ "type": "Feature", "properties": { "N° revue TES": "161", "Titre": "Chantier de délestage du collecteur ouest de Casablanca", "Page": 259, "Pays": "Maroc", "Commune": "Dar Ben Abdallah Ben Dehbi", "Code postal": 20000, "Latitude": 33.51, "Longitude": -7.73, "Mode transport": "énergie\/réseau" }, "geometry": { "type": "Point", "coordinates": [ -7.73, 33.51 ] } },
{ "type": "Feature", "properties": { "N° revue TES": "161", "Titre": "Creusement du tunnel Zurich-Thalwill dans le cadre du projet rail 2000 des chemins de fer suisses", "Page": 283, "Pays": "Suisse", "Commune": "Zurich", "Code postal": null, "Latitude": 47.3744489, "Longitude": 8.5410422, "Mode transport": "ferroviaire" }, "geometry": { "type": "Point", "coordinates": [ 8.5410422, 47.3744489 ] } },
{ "type": "Feature", "properties": { "N° revue TES": "162", "Titre": "Construction d'un second puits à Mol dans le cadre des études pour l'enfouissement géologique des déchets hautement radioactifs en Belgique", "Page": 315, "Pays": "Belgique", "Commune": "Dessel", "Code postal": 2400, "Latitude": 51.2390765, "Longitude": 5.1128221, "Mode transport": "énergie\/réseau" }, "geometry": { "type": "Point", "coordinates": [ 5.1128221, 51.2390765 ] } },
{ "type": "Feature", "properties": { "N° revue TES": "162", "Titre": "Le tir aux détonateurs électroniques dans le tunnel de Foix", "Page": 359, "Pays": "France", "Commune": "Foix", "Code postal": 9000, "Latitude": 1.614395, "Longitude": 42.950779, "Mode transport": "routier" }, "geometry": { "type": "Point", "coordinates": [ 42.950779, 1.614395 ] } },
{ "type": "Feature", "properties": { "N° revue TES": "162", "Titre": "Tunnel de Pianoro : La ligne à grande vitesse Bologne-Florence", "Page": 345, "Pays": "Italie", "Commune": "Pianoro", "Code postal": 40065, "Latitude": 44.392964, "Longitude": 11.342314, "Mode transport": "ferroviaire" }, "geometry": { "type": "Point", "coordinates": [ 11.342314, 44.392964 ] } },
{ "type": "Feature", "properties": { "N° revue TES": "163", "Titre": "Auscultation des ouvrages souterrains du lot n°1 du CERN - Projet LHC", "Page": 7, "Pays": "France", "Commune": "Cessy", "Code postal": 1170, "Latitude": 46.3181308, "Longitude": 6.0691189, "Mode transport": "énergie\/réseau" }, "geometry": { "type": "Point", "coordinates": [ 6.0691189, 46.3181308 ] } },
{ "type": "Feature", "properties": { "N° revue TES": "163", "Titre": "Rénovation de tunnels : Dullin", "Page": 15, "Pays": "France", "Commune": "Dullin", "Code postal": 73610, "Latitude": 5.751502, "Longitude": 45.548779, "Mode transport": "routier" }, "geometry": { "type": "Point", "coordinates": [ 45.548779, 5.751502 ] } },
{ "type": "Feature", "properties": { "N° revue TES": "164", "Titre": "RENOVATION DE TUNNELS - Réabilitation et modernisation du tunnel du Mont-Blanc", "Page": 63, "Pays": "France", "Commune": "Chamonix-Mont-Blanc", "Code postal": 74400, "Latitude": 6.893163, "Longitude": 45.948385, "Mode transport": "énergie\/réseau" }, "geometry": { "type": "Point", "coordinates": [ 45.948385, 6.893163 ] } },
{ "type": "Feature", "properties": { "N° revue TES": "164", "Titre": "Baptême du tunnelier Marianne pour le tunnel LIRE-SUD", "Page": 61, "Pays": "France", "Commune": "Paris", "Code postal": 75000, "Latitude": 2.347, "Longitude": 48.859, "Mode transport": "énergie\/réseau" }, "geometry": { "type": "Point", "coordinates": [ 48.859, 2.347 ] } },
{ "type": "Feature", "properties": { "N° revue TES": "164", "Titre": "Maîtrise du rocher poussant dans le tunnel de base du Gotthard", "Page": 55, "Pays": "Suisse", "Commune": "bedretto", "Code postal": 6780, "Latitude": 46.5059338, "Longitude": 8.5114708, "Mode transport": "ferroviaire" }, "geometry": { "type": "Point", "coordinates": [ 8.5114708, 46.5059338 ] } },
{ "type": "Feature", "properties": { "N° revue TES": "165", "Titre": "Rénovation du tunnel de Fourvière", "Page": 127, "Pays": "France", "Commune": "Lyon", "Code postal": 69000, "Latitude": 4.826023, "Longitude": 45.748952, "Mode transport": "routier" }, "geometry": { "type": "Point", "coordinates": [ 45.748952, 4.826023 ] } },
{ "type": "Feature", "properties": { "N° revue TES": "165", "Titre": "Ligne B du métro de l'agglomération toulousaine", "Page": 167, "Pays": "France", "Commune": "Toulouse", "Code postal": 31000, "Latitude": 1.448298, "Longitude": 43.613746, "Mode transport": "métro\/tram" }, "geometry": { "type": "Point", "coordinates": [ 43.613746, 1.448298 ] } },
{ "type": "Feature", "properties": { "N° revue TES": "165", "Titre": "Le bouclage de l'A86 à l'ouest - Un ouvrage majeur pour l'Ile-de-France", "Page": 137, "Pays": "France", "Commune": "Vaucresson", "Code postal": 92420, "Latitude": 2.163457, "Longitude": 48.840573, "Mode transport": "routier" }, "geometry": { "type": "Point", "coordinates": [ 48.840573, 2.163457 ] } },
{ "type": "Feature", "properties": { "N° revue TES": "165", "Titre": "LES GRANDS CHANTIERS INTERNATIONAUX : Le projet du métro automatique de Turin", "Page": 131, "Pays": "Italie", "Commune": "Turin", "Code postal": null, "Latitude": 45.0677551, "Longitude": 7.6824892, "Mode transport": "métro\/tram" }, "geometry": { "type": "Point", "coordinates": [ 7.6824892, 45.0677551 ] } },
{ "type": "Feature", "properties": { "N° revue TES": "166", "Titre": "LES GRANDS CHANTIERS INTERNATIONAUX - Métro de Madrid : Des tunneliers performants", "Page": 194, "Pays": "Espagne", "Commune": "Madrid", "Code postal": null, "Latitude": 40.4167047, "Longitude": -3.7035825, "Mode transport": "métro\/tram" }, "geometry": { "type": "Point", "coordinates": [ -3.7035825, 40.4167047 ] } },
{ "type": "Feature", "properties": { "N° revue TES": "166", "Titre": "RENOVATION DE TUNNELS - Le Galibier : Procédés de construction, marchés et exécution", "Page": 189, "Pays": "France", "Commune": "Valloire", "Code postal": 73450, "Latitude": 6.419227, "Longitude": 45.136353, "Mode transport": "routier" }, "geometry": { "type": "Point", "coordinates": [ 45.136353, 6.419227 ] } },
{ "type": "Feature", "properties": { "N° revue TES": "167", "Titre": "Tunnel du Löstschberg - La fenêtre de Ferden", "Page": 267, "Pays": "Suisse", "Commune": "Niedergesteln", "Code postal": null, "Latitude": 46.3133927, "Longitude": 7.7818042, "Mode transport": "ferroviaire" }, "geometry": { "type": "Point", "coordinates": [ 7.7818042, 46.3133927 ] } },
{ "type": "Feature", "properties": { "N° revue TES": "168", "Titre": "Jouques-Durance : une galerie pour Gaz de France", "Page": 307, "Pays": "France", "Commune": "Jouques", "Code postal": 13490, "Latitude": 5.64383, "Longitude": 43.63762, "Mode transport": "énergie\/réseau" }, "geometry": { "type": "Point", "coordinates": [ 43.63762, 5.64383 ] } },
{ "type": "Feature", "properties": { "N° revue TES": "168", "Titre": "La traversée souterraines de Toulon - Boulonnage de front - Etude expérimentale", "Page": 297, "Pays": "France", "Commune": "Toulon", "Code postal": 83200, "Latitude": 5.899868, "Longitude": 43.146239, "Mode transport": "routier" }, "geometry": { "type": "Point", "coordinates": [ 43.146239, 5.899868 ] } },
{ "type": "Feature", "properties": { "N° revue TES": "169", "Titre": "Stabilité du front de taille et prévision des tassements sur le tunnel VL 1", "Page": 9, "Pays": "France", "Commune": "Rueil-Malmaison", "Code postal": 92500, "Latitude": 2.180528, "Longitude": 48.874602, "Mode transport": "routier" }, "geometry": { "type": "Point", "coordinates": [ 48.874602, 2.180528 ] } },
{ "type": "Feature", "properties": { "N° revue TES": "169", "Titre": "LES GRANDS CHANTIERS INTERNATIONAUX - Les tunnels du Pannerdensch Kanaal", "Page": 26, "Pays": "Pays-Bas", "Commune": "Doornenburg", "Code postal": null, "Latitude": 51.89018, "Longitude": 6.0015114, "Mode transport": "fluvial" }, "geometry": { "type": "Point", "coordinates": [ 6.0015114, 51.89018 ] } },
{ "type": "Feature", "properties": { "N° revue TES": "170", "Titre": "Le chantier du Channel Tunnel Rail Link (CTRL)", "Page": 69, "Pays": "Angleterre", "Commune": "Londres", "Code postal": null, "Latitude": 51.5074456, "Longitude": -0.1277653, "Mode transport": "ferroviaire" }, "geometry": { "type": "Point", "coordinates": [ -0.1277653, 51.5074456 ] } },
{ "type": "Feature", "properties": { "N° revue TES": "171", "Titre": "Rénovation de tunnels - Le tunnel du Vuache", "Page": 163, "Pays": "France", "Commune": "Dingy-en-Vuache", "Code postal": 74520, "Latitude": 5.947861, "Longitude": 46.089246, "Mode transport": "ferroviaire" }, "geometry": { "type": "Point", "coordinates": [ 46.089246, 5.947861 ] } },
{ "type": "Feature", "properties": { "N° revue TES": "171", "Titre": "Protection passive au feu du tunnel de Toulon", "Page": 173, "Pays": "France", "Commune": "Toulon", "Code postal": 83200, "Latitude": 5.899868, "Longitude": 43.146239, "Mode transport": "routier" }, "geometry": { "type": "Point", "coordinates": [ 43.146239, 5.899868 ] } },
{ "type": "Feature", "properties": { "N° revue TES": "171", "Titre": "VENTILATION DU TUNNEL ROUTIER DU ST. GOTHARD - Adaptation orientée à l’augmentation du trafic des poids lourds", "Page": 125, "Pays": "Suisse", "Commune": "Andermatt", "Code postal": 6490, "Latitude": 46.6340499, "Longitude": 8.5948148, "Mode transport": "routier" }, "geometry": { "type": "Point", "coordinates": [ 8.5948148, 46.6340499 ] } },
{ "type": "Feature", "properties": { "N° revue TES": "171", "Titre": "TUNNEL DE BASE DU LOETSCHBERG - La ventilation et la réfrigération de chantier du lot d’excavation", "Page": 119, "Pays": "Suisse", "Commune": "Niedergesteln", "Code postal": null, "Latitude": 46.3133927, "Longitude": 7.7818042, "Mode transport": "ferroviaire" }, "geometry": { "type": "Point", "coordinates": [ 7.7818042, 46.3133927 ] } },
{ "type": "Feature", "properties": { "N° revue TES": "172", "Titre": "Le métro de Bilbao", "Page": 269, "Pays": "Espagne", "Commune": "Bilbao", "Code postal": 48001, "Latitude": 43.2630018, "Longitude": -2.9350039, "Mode transport": "métro\/tram" }, "geometry": { "type": "Point", "coordinates": [ -2.9350039, 43.2630018 ] } },
{ "type": "Feature", "properties": { "N° revue TES": "172", "Titre": "Tunnel de la nouvelle ligne G.V. Madrid- Barcelone -Frontière française", "Page": 227, "Pays": "Espagne", "Commune": "Guadarrama", "Code postal": 28440, "Latitude": 40.6734454, "Longitude": -4.0893911, "Mode transport": "ferroviaire" }, "geometry": { "type": "Point", "coordinates": [ -4.0893911, 40.6734454 ] } },
{ "type": "Feature", "properties": { "N° revue TES": "172", "Titre": "Doublement du tunnel de Vielha sur la RN230", "Page": 235, "Pays": "Espagne", "Commune": "Vielha", "Code postal": 25530, "Latitude": 42.7017572, "Longitude": 0.7954744, "Mode transport": "routier" }, "geometry": { "type": "Point", "coordinates": [ 0.7954744, 42.7017572 ] } },
{ "type": "Feature", "properties": { "N° revue TES": "172", "Titre": "Le tunnel du Somport : voie de l’Europe", "Page": 241, "Pays": "France", "Commune": "Les Forges d'Abel", "Code postal": 64490, "Latitude": -0.561589, "Longitude": 42.821024, "Mode transport": "routier" }, "geometry": { "type": "Point", "coordinates": [ 42.821024, -0.561589 ] } },
{ "type": "Feature", "properties": { "N° revue TES": "172", "Titre": "Point sur l’avancement des travaux de la ligne B du métro de l’agglomération toulousaine", "Page": 209, "Pays": "France", "Commune": "Toulouse", "Code postal": 31000, "Latitude": 1.448298, "Longitude": 43.613746, "Mode transport": "métro\/tram" }, "geometry": { "type": "Point", "coordinates": [ 43.613746, 1.448298 ] } },
{ "type": "Feature", "properties": { "N° revue TES": "173", "Titre": "Réhabilitation du tunnel ferroviaire de Saint-Antoine", "Page": 307, "Pays": "France", "Commune": "Modane", "Code postal": 73500, "Latitude": 6.664194, "Longitude": 45.194019, "Mode transport": "ferroviaire" }, "geometry": { "type": "Point", "coordinates": [ 45.194019, 6.664194 ] } },
{ "type": "Feature", "properties": { "N° revue TES": "173", "Titre": "Métro de Paris - METEOR phase 3 - Ouverture de la station “Olympiades”", "Page": 293, "Pays": "France", "Commune": "Paris", "Code postal": 75000, "Latitude": 2.347, "Longitude": 48.859, "Mode transport": "métro\/tram" }, "geometry": { "type": "Point", "coordinates": [ 48.859, 2.347 ] } },
{ "type": "Feature", "properties": { "N° revue TES": "175", "Titre": "Une chaussée en béton armé continu dans un tunnel à Liège - Belgique", "Page": 19, "Pays": "Belgique", "Commune": "Liège", "Code postal": null, "Latitude": 50.6450944, "Longitude": 5.5736112, "Mode transport": "routier" }, "geometry": { "type": "Point", "coordinates": [ 5.5736112, 50.6450944 ] } },
{ "type": "Feature", "properties": { "N° revue TES": "175", "Titre": "Le complexe d'assainissement des Cormailles à Ivry-sur-Seine. L'émissaire de maillage Cachan Charenton", "Page": 7, "Pays": "France", "Commune": "Ivry-sur-Seine", "Code postal": 94205, "Latitude": 2.386427, "Longitude": 48.812752, "Mode transport": "énergie\/réseau" }, "geometry": { "type": "Point", "coordinates": [ 48.812752, 2.386427 ] } },
{ "type": "Feature", "properties": { "N° revue TES": "175", "Titre": "Rénovation de la plate-forme du tunnel de Saint Martin d'Estréaux", "Page": 27, "Pays": "France", "Commune": "Saint-Martin-d'Estréaux", "Code postal": 42620, "Latitude": 3.808981, "Longitude": 46.203059, "Mode transport": "ferroviaire" }, "geometry": { "type": "Point", "coordinates": [ 46.203059, 3.808981 ] } },
{ "type": "Feature", "properties": { "N° revue TES": "175", "Titre": "Le tunnel du Groene Hart - Le plus grand tunnelier du monde - Un projet pour satisfaire l'écologie", "Page": 13, "Pays": "Pays-Bas", "Commune": "Amsterdam", "Code postal": 1098, "Latitude": 52.3730796, "Longitude": 4.8924534, "Mode transport": "routier" },